[
    {
        "id": 60001,
        "state_id": 1994,
        "country_id": 102,
        "name": "Umarga",
        "latitude": "17.83841000",
        "longitude": "76.62331000",
        "is_active": true
    },
    {
        "id": 60002,
        "state_id": 1994,
        "country_id": 102,
        "name": "Umarkhed",
        "latitude": "19.60144000",
        "longitude": "77.68878000",
        "is_active": true
    },
    {
        "id": 60003,
        "state_id": 1994,
        "country_id": 102,
        "name": "Umred",
        "latitude": "20.85396000",
        "longitude": "79.32466000",
        "is_active": true
    },
    {
        "id": 60004,
        "state_id": 1994,
        "country_id": 102,
        "name": "Uran",
        "latitude": "18.87813000",
        "longitude": "72.93924000",
        "is_active": true
    },
    {
        "id": 60005,
        "state_id": 1994,
        "country_id": 102,
        "name": "Uruli Kanchan",
        "latitude": "18.48333333",
        "longitude": "74.13333333",
        "is_active": true
    },
    {
        "id": 60006,
        "state_id": 1994,
        "country_id": 102,
        "name": "Vada",
        "latitude": "19.65347000",
        "longitude": "73.14811000",
        "is_active": true
    },
    {
        "id": 60007,
        "state_id": 1994,
        "country_id": 102,
        "name": "Vadgaon",
        "latitude": "18.74860000",
        "longitude": "73.64100000",
        "is_active": true
    },
    {
        "id": 60008,
        "state_id": 1994,
        "country_id": 102,
        "name": "Vadner",
        "latitude": "20.25000000",
        "longitude": "74.03330000",
        "is_active": true
    },
    {
        "id": 60009,
        "state_id": 1994,
        "country_id": 102,
        "name": "Vaijapur",
        "latitude": "19.92672000",
        "longitude": "74.72750000",
        "is_active": true
    },
    {
        "id": 60010,
        "state_id": 1994,
        "country_id": 102,
        "name": "Vairag",
        "latitude": "18.05000000",
        "longitude": "75.80000000",
        "is_active": true
    },
    {
        "id": 60011,
        "state_id": 1994,
        "country_id": 102,
        "name": "Valsang",
        "latitude": "17.60000000",
        "longitude": "76.08330000",
        "is_active": true
    },
    {
        "id": 60012,
        "state_id": 1994,
        "country_id": 102,
        "name": "Vangaon",
        "latitude": "19.86666667",
        "longitude": "72.75000000",
        "is_active": true
    },
    {
        "id": 60013,
        "state_id": 1994,
        "country_id": 102,
        "name": "Varangaon",
        "latitude": "21.01767000",
        "longitude": "75.91042000",
        "is_active": true
    },
    {
        "id": 60014,
        "state_id": 1994,
        "country_id": 102,
        "name": "Vashi",
        "latitude": "19.08000000",
        "longitude": "73.01000000",
        "is_active": true
    },
    {
        "id": 60015,
        "state_id": 1994,
        "country_id": 102,
        "name": "Vasind",
        "latitude": "19.40844000",
        "longitude": "73.26285000",
        "is_active": true
    },
    {
        "id": 60016,
        "state_id": 1994,
        "country_id": 102,
        "name": "Vatul",
        "latitude": "16.75000000",
        "longitude": "73.60000000",
        "is_active": true
    },
    {
        "id": 60017,
        "state_id": 1994,
        "country_id": 102,
        "name": "Velas, Maharashtra",
        "latitude": "17.95850000",
        "longitude": "73.04980000",
        "is_active": true
    },
    {
        "id": 60018,
        "state_id": 1994,
        "country_id": 102,
        "name": "Velneshwar",
        "latitude": "17.38330000",
        "longitude": "73.20000000",
        "is_active": true
    },
    {
        "id": 60019,
        "state_id": 1994,
        "country_id": 102,
        "name": "Vengurla",
        "latitude": "15.86125000",
        "longitude": "73.63182000",
        "is_active": true
    },
    {
        "id": 60020,
        "state_id": 1994,
        "country_id": 102,
        "name": "Vijaydurg",
        "latitude": "16.56670000",
        "longitude": "73.33330000",
        "is_active": true
    },
    {
        "id": 60021,
        "state_id": 1994,
        "country_id": 102,
        "name": "Vikhroli",
        "latitude": "19.11000000",
        "longitude": "72.94000000",
        "is_active": true
    },
    {
        "id": 60022,
        "state_id": 1994,
        "country_id": 102,
        "name": "Vile Parle",
        "latitude": "19.10000000",
        "longitude": "72.83000000",
        "is_active": true
    },
    {
        "id": 60023,
        "state_id": 1994,
        "country_id": 102,
        "name": "Vinchur",
        "latitude": "20.11666667",
        "longitude": "74.28333333",
        "is_active": true
    },
    {
        "id": 60024,
        "state_id": 1994,
        "country_id": 102,
        "name": "Virar",
        "latitude": "19.45591000",
        "longitude": "72.81136000",
        "is_active": true
    },
    {
        "id": 60025,
        "state_id": 1994,
        "country_id": 102,
        "name": "Vita, Maharashtra",
        "latitude": "17.27110000",
        "longitude": "74.53780000",
        "is_active": true
    },
    {
        "id": 60026,
        "state_id": 1994,
        "country_id": 102,
        "name": "Vite",
        "latitude": "17.27343000",
        "longitude": "74.53792000",
        "is_active": true
    },
    {
        "id": 60027,
        "state_id": 1994,
        "country_id": 102,
        "name": "Wadala",
        "latitude": "19.02163056",
        "longitude": "72.86458889",
        "is_active": true
    },
    {
        "id": 60028,
        "state_id": 1994,
        "country_id": 102,
        "name": "Wadgaon",
        "latitude": "18.73920000",
        "longitude": "73.63945000",
        "is_active": true
    },
    {
        "id": 60029,
        "state_id": 1994,
        "country_id": 102,
        "name": "Wadner",
        "latitude": "20.84972222",
        "longitude": "76.33333333",
        "is_active": true
    },
    {
        "id": 60030,
        "state_id": 1994,
        "country_id": 102,
        "name": "Wadwani",
        "latitude": "18.98333333",
        "longitude": "76.05000000",
        "is_active": true
    },
    {
        "id": 60031,
        "state_id": 1994,
        "country_id": 102,
        "name": "Wagholi",
        "latitude": "17.90000000",
        "longitude": "74.08300000",
        "is_active": true
    },
    {
        "id": 60032,
        "state_id": 1994,
        "country_id": 102,
        "name": "Wai",
        "latitude": "17.95276000",
        "longitude": "73.89058000",
        "is_active": true
    },
    {
        "id": 60033,
        "state_id": 1994,
        "country_id": 102,
        "name": "Wakad",
        "latitude": "18.59930000",
        "longitude": "73.76250000",
        "is_active": true
    },
    {
        "id": 60034,
        "state_id": 1994,
        "country_id": 102,
        "name": "Walgaon",
        "latitude": "20.99890000",
        "longitude": "77.70640000",
        "is_active": true
    },
    {
        "id": 60035,
        "state_id": 1994,
        "country_id": 102,
        "name": "Walki",
        "latitude": "18.95000000",
        "longitude": "74.75000000",
        "is_active": true
    },
    {
        "id": 60036,
        "state_id": 1994,
        "country_id": 102,
        "name": "Wani",
        "latitude": "20.05507000",
        "longitude": "78.95313000",
        "is_active": true
    },
    {
        "id": 60037,
        "state_id": 1994,
        "country_id": 102,
        "name": "Wardha",
        "latitude": "20.73933000",
        "longitude": "78.59784000",
        "is_active": true
    },
    {
        "id": 60038,
        "state_id": 1994,
        "country_id": 102,
        "name": "Warora",
        "latitude": "20.22885000",
        "longitude": "79.00277000",
        "is_active": true
    },
    {
        "id": 60039,
        "state_id": 1994,
        "country_id": 102,
        "name": "Warud",
        "latitude": "21.47101000",
        "longitude": "78.26965000",
        "is_active": true
    },
    {
        "id": 60040,
        "state_id": 1994,
        "country_id": 102,
        "name": "Washim",
        "latitude": "20.20000000",
        "longitude": "77.20000000",
        "is_active": true
    },
    {
        "id": 60041,
        "state_id": 1994,
        "country_id": 102,
        "name": "Worli",
        "latitude": "19.00000000",
        "longitude": "72.81500000",
        "is_active": true
    },
    {
        "id": 60042,
        "state_id": 1994,
        "country_id": 102,
        "name": "Yaval",
        "latitude": "21.16772000",
        "longitude": "75.69762000",
        "is_active": true
    },
    {
        "id": 60043,
        "state_id": 1994,
        "country_id": 102,
        "name": "Yavatmal",
        "latitude": "20.15000000",
        "longitude": "78.35000000",
        "is_active": true
    },
    {
        "id": 60044,
        "state_id": 1994,
        "country_id": 102,
        "name": "Yeola",
        "latitude": "20.04240000",
        "longitude": "74.48944000",
        "is_active": true
    },
    {
        "id": 60045,
        "state_id": 1995,
        "country_id": 102,
        "name": "Cherrapunji",
        "latitude": "25.30089000",
        "longitude": "91.69619000",
        "is_active": true
    },
    {
        "id": 60046,
        "state_id": 1995,
        "country_id": 102,
        "name": "East Garo Hills",
        "latitude": "25.61372000",
        "longitude": "90.62426000",
        "is_active": true
    },
    {
        "id": 60047,
        "state_id": 1995,
        "country_id": 102,
        "name": "East Jaintia Hills",
        "latitude": "25.35976000",
        "longitude": "92.36680000",
        "is_active": true
    },
    {
        "id": 60048,
        "state_id": 1995,
        "country_id": 102,
        "name": "East Khasi Hills",
        "latitude": "25.38050000",
        "longitude": "91.78905000",
        "is_active": true
    },
    {
        "id": 60049,
        "state_id": 1995,
        "country_id": 102,
        "name": "Mairang",
        "latitude": "25.56165000",
        "longitude": "91.63602000",
        "is_active": true
    },
    {
        "id": 60050,
        "state_id": 1995,
        "country_id": 102,
        "name": "Mankachar",
        "latitude": "25.53347000",
        "longitude": "89.86373000",
        "is_active": true
    },
    {
        "id": 60051,
        "state_id": 1995,
        "country_id": 102,
        "name": "Nongpoh",
        "latitude": "25.90230000",
        "longitude": "91.87694000",
        "is_active": true
    },
    {
        "id": 60052,
        "state_id": 1995,
        "country_id": 102,
        "name": "Nongstoin",
        "latitude": "25.51704000",
        "longitude": "91.26484000",
        "is_active": true
    },
    {
        "id": 60053,
        "state_id": 1995,
        "country_id": 102,
        "name": "North Garo Hills",
        "latitude": "25.89682000",
        "longitude": "90.61602000",
        "is_active": true
    },
    {
        "id": 60054,
        "state_id": 1995,
        "country_id": 102,
        "name": "Ri-Bhoi",
        "latitude": "25.88997000",
        "longitude": "91.82707000",
        "is_active": true
    },
    {
        "id": 60055,
        "state_id": 1995,
        "country_id": 102,
        "name": "Shillong",
        "latitude": "25.56892000",
        "longitude": "91.88313000",
        "is_active": true
    },
    {
        "id": 60056,
        "state_id": 1995,
        "country_id": 102,
        "name": "South Garo Hills",
        "latitude": "25.30162000",
        "longitude": "90.58530000",
        "is_active": true
    },
    {
        "id": 60057,
        "state_id": 1995,
        "country_id": 102,
        "name": "South West Garo Hills",
        "latitude": "25.47245000",
        "longitude": "89.93399000",
        "is_active": true
    },
    {
        "id": 60058,
        "state_id": 1995,
        "country_id": 102,
        "name": "South West Khasi Hills",
        "latitude": "25.32155000",
        "longitude": "91.29462000",
        "is_active": true
    },
    {
        "id": 60059,
        "state_id": 1995,
        "country_id": 102,
        "name": "Tura",
        "latitude": "25.51421000",
        "longitude": "90.20239000",
        "is_active": true
    },
    {
        "id": 60060,
        "state_id": 1995,
        "country_id": 102,
        "name": "West Garo Hills",
        "latitude": "25.56794000",
        "longitude": "90.22447000",
        "is_active": true
    },
    {
        "id": 60061,
        "state_id": 1995,
        "country_id": 102,
        "name": "West Jaintia Hills",
        "latitude": "25.50000000",
        "longitude": "92.25000000",
        "is_active": true
    },
    {
        "id": 60062,
        "state_id": 1995,
        "country_id": 102,
        "name": "West Khasi Hills",
        "latitude": "25.54776000",
        "longitude": "91.26957000",
        "is_active": true
    },
    {
        "id": 60063,
        "state_id": 1996,
        "country_id": 102,
        "name": "Bishnupur",
        "latitude": "24.60769000",
        "longitude": "93.77998000",
        "is_active": true
    },
    {
        "id": 60064,
        "state_id": 1996,
        "country_id": 102,
        "name": "Churachandpur",
        "latitude": "24.33333000",
        "longitude": "93.68333000",
        "is_active": true
    },
    {
        "id": 60065,
        "state_id": 1996,
        "country_id": 102,
        "name": "Imphal",
        "latitude": "24.80805000",
        "longitude": "93.94420000",
        "is_active": true
    },
    {
        "id": 60066,
        "state_id": 1996,
        "country_id": 102,
        "name": "Kakching",
        "latitude": "24.49820000",
        "longitude": "93.98126000",
        "is_active": true
    },
    {
        "id": 60067,
        "state_id": 1996,
        "country_id": 102,
        "name": "Mayang Imphal",
        "latitude": "24.60998000",
        "longitude": "93.88873000",
        "is_active": true
    },
    {
        "id": 60068,
        "state_id": 1996,
        "country_id": 102,
        "name": "Moirang",
        "latitude": "24.49750000",
        "longitude": "93.77791000",
        "is_active": true
    },
    {
        "id": 60069,
        "state_id": 1996,
        "country_id": 102,
        "name": "Phek",
        "latitude": "25.66667000",
        "longitude": "94.50000000",
        "is_active": true
    },
    {
        "id": 60070,
        "state_id": 1996,
        "country_id": 102,
        "name": "Senapati",
        "latitude": "25.26705000",
        "longitude": "94.02237000",
        "is_active": true
    },
    {
        "id": 60071,
        "state_id": 1996,
        "country_id": 102,
        "name": "Tamenglong",
        "latitude": "24.97548000",
        "longitude": "93.51563000",
        "is_active": true
    },
    {
        "id": 60072,
        "state_id": 1996,
        "country_id": 102,
        "name": "Thoubal",
        "latitude": "24.62205000",
        "longitude": "94.01001000",
        "is_active": true
    },
    {
        "id": 60073,
        "state_id": 1996,
        "country_id": 102,
        "name": "Ukhrul",
        "latitude": "25.04828000",
        "longitude": "94.35883000",
        "is_active": true
    },
    {
        "id": 60074,
        "state_id": 1996,
        "country_id": 102,
        "name": "Wangjing",
        "latitude": "24.58921000",
        "longitude": "94.06386000",
        "is_active": true
    },
    {
        "id": 60075,
        "state_id": 1996,
        "country_id": 102,
        "name": "Yairipok",
        "latitude": "24.67792000",
        "longitude": "94.04767000",
        "is_active": true
    },
    {
        "id": 60076,
        "state_id": 1997,
        "country_id": 102,
        "name": "Agar",
        "latitude": "23.71177000",
        "longitude": "76.01571000",
        "is_active": true
    },
    {
        "id": 60077,
        "state_id": 1997,
        "country_id": 102,
        "name": "Ajaigarh",
        "latitude": "24.89879000",
        "longitude": "80.25921000",
        "is_active": true
    },
    {
        "id": 60078,
        "state_id": 1997,
        "country_id": 102,
        "name": "Akodia",
        "latitude": "23.38027000",
        "longitude": "76.59875000",
        "is_active": true
    },
    {
        "id": 60079,
        "state_id": 1997,
        "country_id": 102,
        "name": "Alampur",
        "latitude": "26.02514000",
        "longitude": "78.79697000",
        "is_active": true
    },
    {
        "id": 60080,
        "state_id": 1997,
        "country_id": 102,
        "name": "Alirajpur",
        "latitude": "22.31384000",
        "longitude": "74.36452000",
        "is_active": true
    },
    {
        "id": 60081,
        "state_id": 1997,
        "country_id": 102,
        "name": "Alot",
        "latitude": "23.76336000",
        "longitude": "75.55662000",
        "is_active": true
    },
    {
        "id": 60082,
        "state_id": 1997,
        "country_id": 102,
        "name": "Amanganj",
        "latitude": "24.42664000",
        "longitude": "80.03579000",
        "is_active": true
    },
    {
        "id": 60083,
        "state_id": 1997,
        "country_id": 102,
        "name": "Amarkantak",
        "latitude": "22.67486000",
        "longitude": "81.75908000",
        "is_active": true
    },
    {
        "id": 60084,
        "state_id": 1997,
        "country_id": 102,
        "name": "Amarpatan",
        "latitude": "24.31371000",
        "longitude": "80.97703000",
        "is_active": true
    },
    {
        "id": 60085,
        "state_id": 1997,
        "country_id": 102,
        "name": "Amarwara",
        "latitude": "22.29780000",
        "longitude": "79.16943000",
        "is_active": true
    },
    {
        "id": 60086,
        "state_id": 1997,
        "country_id": 102,
        "name": "Ambah",
        "latitude": "26.70423000",
        "longitude": "78.22678000",
        "is_active": true
    },
    {
        "id": 60087,
        "state_id": 1997,
        "country_id": 102,
        "name": "Amla",
        "latitude": "21.92485000",
        "longitude": "78.12786000",
        "is_active": true
    },
    {
        "id": 60088,
        "state_id": 1997,
        "country_id": 102,
        "name": "Anjad",
        "latitude": "22.04171000",
        "longitude": "75.05519000",
        "is_active": true
    },
    {
        "id": 60089,
        "state_id": 1997,
        "country_id": 102,
        "name": "Antri",
        "latitude": "26.05804000",
        "longitude": "78.21027000",
        "is_active": true
    },
    {
        "id": 60090,
        "state_id": 1997,
        "country_id": 102,
        "name": "Anuppur",
        "latitude": "23.05674000",
        "longitude": "81.68399000",
        "is_active": true
    },
    {
        "id": 60091,
        "state_id": 1997,
        "country_id": 102,
        "name": "Aron",
        "latitude": "24.38109000",
        "longitude": "77.41739000",
        "is_active": true
    },
    {
        "id": 60092,
        "state_id": 1997,
        "country_id": 102,
        "name": "Ashoknagar",
        "latitude": "24.58000000",
        "longitude": "77.73000000",
        "is_active": true
    },
    {
        "id": 60093,
        "state_id": 1997,
        "country_id": 102,
        "name": "Ashta",
        "latitude": "23.01754000",
        "longitude": "76.72208000",
        "is_active": true
    },
    {
        "id": 60094,
        "state_id": 1997,
        "country_id": 102,
        "name": "Babai",
        "latitude": "22.70256000",
        "longitude": "77.93494000",
        "is_active": true
    },
    {
        "id": 60095,
        "state_id": 1997,
        "country_id": 102,
        "name": "Badarwas",
        "latitude": "24.97516000",
        "longitude": "77.56490000",
        "is_active": true
    },
    {
        "id": 60096,
        "state_id": 1997,
        "country_id": 102,
        "name": "Badnawar",
        "latitude": "23.02181000",
        "longitude": "75.23268000",
        "is_active": true
    },
    {
        "id": 60097,
        "state_id": 1997,
        "country_id": 102,
        "name": "Bag",
        "latitude": "22.35905000",
        "longitude": "74.79052000",
        "is_active": true
    },
    {
        "id": 60098,
        "state_id": 1997,
        "country_id": 102,
        "name": "Bagli",
        "latitude": "22.64124000",
        "longitude": "76.34877000",
        "is_active": true
    },
    {
        "id": 60099,
        "state_id": 1997,
        "country_id": 102,
        "name": "Baihar",
        "latitude": "22.10133000",
        "longitude": "80.54967000",
        "is_active": true
    },
    {
        "id": 60100,
        "state_id": 1997,
        "country_id": 102,
        "name": "Baikunthpur",
        "latitude": "24.72768000",
        "longitude": "81.40975000",
        "is_active": true
    },
    {
        "id": 60101,
        "state_id": 1997,
        "country_id": 102,
        "name": "Bakshwaho",
        "latitude": "24.25106000",
        "longitude": "79.28618000",
        "is_active": true
    },
    {
        "id": 60102,
        "state_id": 1997,
        "country_id": 102,
        "name": "Balaghat",
        "latitude": "21.96667000",
        "longitude": "80.33333000",
        "is_active": true
    },
    {
        "id": 60103,
        "state_id": 1997,
        "country_id": 102,
        "name": "Baldeogarh",
        "latitude": "24.75619000",
        "longitude": "79.06715000",
        "is_active": true
    },
    {
        "id": 60104,
        "state_id": 1997,
        "country_id": 102,
        "name": "Bamna",
        "latitude": "23.09454000",
        "longitude": "74.76164000",
        "is_active": true
    },
    {
        "id": 60105,
        "state_id": 1997,
        "country_id": 102,
        "name": "Bamor Kalan",
        "latitude": "24.89298000",
        "longitude": "78.15105000",
        "is_active": true
    },
    {
        "id": 60106,
        "state_id": 1997,
        "country_id": 102,
        "name": "Bamora",
        "latitude": "24.05539000",
        "longitude": "78.08925000",
        "is_active": true
    },
    {
        "id": 60107,
        "state_id": 1997,
        "country_id": 102,
        "name": "Banda",
        "latitude": "24.04488000",
        "longitude": "78.96094000",
        "is_active": true
    },
    {
        "id": 60108,
        "state_id": 1997,
        "country_id": 102,
        "name": "Barela",
        "latitude": "23.09678000",
        "longitude": "80.05084000",
        "is_active": true
    },
    {
        "id": 60109,
        "state_id": 1997,
        "country_id": 102,
        "name": "Barghat",
        "latitude": "22.03065000",
        "longitude": "79.73280000",
        "is_active": true
    },
    {
        "id": 60110,
        "state_id": 1997,
        "country_id": 102,
        "name": "Bargi",
        "latitude": "22.99138000",
        "longitude": "79.87550000",
        "is_active": true
    },
    {
        "id": 60111,
        "state_id": 1997,
        "country_id": 102,
        "name": "Barhi",
        "latitude": "23.90326000",
        "longitude": "80.81516000",
        "is_active": true
    },
    {
        "id": 60112,
        "state_id": 1997,
        "country_id": 102,
        "name": "Barwani",
        "latitude": "22.02485000",
        "longitude": "74.91805000",
        "is_active": true
    },
    {
        "id": 60113,
        "state_id": 1997,
        "country_id": 102,
        "name": "Basoda",
        "latitude": "23.85153000",
        "longitude": "77.93652000",
        "is_active": true
    },
    {
        "id": 60114,
        "state_id": 1997,
        "country_id": 102,
        "name": "Begamganj",
        "latitude": "23.59917000",
        "longitude": "78.34064000",
        "is_active": true
    },
    {
        "id": 60115,
        "state_id": 1997,
        "country_id": 102,
        "name": "Beohari",
        "latitude": "24.02423000",
        "longitude": "81.37831000",
        "is_active": true
    },
    {
        "id": 60116,
        "state_id": 1997,
        "country_id": 102,
        "name": "Berasia",
        "latitude": "23.63134000",
        "longitude": "77.43351000",
        "is_active": true
    },
    {
        "id": 60117,
        "state_id": 1997,
        "country_id": 102,
        "name": "Betma",
        "latitude": "22.68653000",
        "longitude": "75.61456000",
        "is_active": true
    },
    {
        "id": 60118,
        "state_id": 1997,
        "country_id": 102,
        "name": "Betul",
        "latitude": "21.83333000",
        "longitude": "77.83333000",
        "is_active": true
    },
    {
        "id": 60119,
        "state_id": 1997,
        "country_id": 102,
        "name": "Betul Bazar",
        "latitude": "21.85572000",
        "longitude": "77.92913000",
        "is_active": true
    },
    {
        "id": 60120,
        "state_id": 1997,
        "country_id": 102,
        "name": "Bhabhra",
        "latitude": "22.53048000",
        "longitude": "74.32846000",
        "is_active": true
    },
    {
        "id": 60121,
        "state_id": 1997,
        "country_id": 102,
        "name": "Bhainsdehi",
        "latitude": "21.64491000",
        "longitude": "77.63023000",
        "is_active": true
    },
    {
        "id": 60122,
        "state_id": 1997,
        "country_id": 102,
        "name": "Bhander",
        "latitude": "25.73581000",
        "longitude": "78.74555000",
        "is_active": true
    },
    {
        "id": 60123,
        "state_id": 1997,
        "country_id": 102,
        "name": "Bhanpura",
        "latitude": "24.51300000",
        "longitude": "75.74690000",
        "is_active": true
    },
    {
        "id": 60124,
        "state_id": 1997,
        "country_id": 102,
        "name": "Bhawaniganj",
        "latitude": "24.41582000",
        "longitude": "75.83552000",
        "is_active": true
    },
    {
        "id": 60125,
        "state_id": 1997,
        "country_id": 102,
        "name": "Bhikangaon",
        "latitude": "21.86764000",
        "longitude": "75.96391000",
        "is_active": true
    },
    {
        "id": 60126,
        "state_id": 1997,
        "country_id": 102,
        "name": "Bhind",
        "latitude": "26.50000000",
        "longitude": "78.75000000",
        "is_active": true
    },
    {
        "id": 60127,
        "state_id": 1997,
        "country_id": 102,
        "name": "Bhitarwar",
        "latitude": "25.79216000",
        "longitude": "78.11085000",
        "is_active": true
    },
    {
        "id": 60128,
        "state_id": 1997,
        "country_id": 102,
        "name": "Bhopal",
        "latitude": "23.25469000",
        "longitude": "77.40289000",
        "is_active": true
    },
    {
        "id": 60129,
        "state_id": 1997,
        "country_id": 102,
        "name": "Biaora",
        "latitude": "23.92050000",
        "longitude": "76.91074000",
        "is_active": true
    },
    {
        "id": 60130,
        "state_id": 1997,
        "country_id": 102,
        "name": "Bijawar",
        "latitude": "24.62351000",
        "longitude": "79.48994000",
        "is_active": true
    },
    {
        "id": 60131,
        "state_id": 1997,
        "country_id": 102,
        "name": "Bijrauni",
        "latitude": "24.93296000",
        "longitude": "77.64352000",
        "is_active": true
    },
    {
        "id": 60132,
        "state_id": 1997,
        "country_id": 102,
        "name": "Bodri",
        "latitude": "23.16524000",
        "longitude": "81.43262000",
        "is_active": true
    },
    {
        "id": 60133,
        "state_id": 1997,
        "country_id": 102,
        "name": "Burhanpur",
        "latitude": "21.31000000",
        "longitude": "76.23000000",
        "is_active": true
    },
    {
        "id": 60134,
        "state_id": 1997,
        "country_id": 102,
        "name": "Burhar",
        "latitude": "23.21494000",
        "longitude": "81.53204000",
        "is_active": true
    },
    {
        "id": 60135,
        "state_id": 1997,
        "country_id": 102,
        "name": "Chanderi",
        "latitude": "24.71312000",
        "longitude": "78.13809000",
        "is_active": true
    },
    {
        "id": 60136,
        "state_id": 1997,
        "country_id": 102,
        "name": "Chandia",
        "latitude": "23.65647000",
        "longitude": "80.70911000",
        "is_active": true
    },
    {
        "id": 60137,
        "state_id": 1997,
        "country_id": 102,
        "name": "Chandla",
        "latitude": "25.07148000",
        "longitude": "80.19294000",
        "is_active": true
    },
    {
        "id": 60138,
        "state_id": 1997,
        "country_id": 102,
        "name": "Chhatarpur",
        "latitude": "24.75000000",
        "longitude": "79.75000000",
        "is_active": true
    },
    {
        "id": 60139,
        "state_id": 1997,
        "country_id": 102,
        "name": "Chhindwara",
        "latitude": "22.05697000",
        "longitude": "78.93958000",
        "is_active": true
    },
    {
        "id": 60140,
        "state_id": 1997,
        "country_id": 102,
        "name": "Chichli",
        "latitude": "22.83363000",
        "longitude": "78.82611000",
        "is_active": true
    },
    {
        "id": 60141,
        "state_id": 1997,
        "country_id": 102,
        "name": "Chorhat",
        "latitude": "24.42743000",
        "longitude": "81.66948000",
        "is_active": true
    },
    {
        "id": 60142,
        "state_id": 1997,
        "country_id": 102,
        "name": "Daboh",
        "latitude": "26.00239000",
        "longitude": "78.87658000",
        "is_active": true
    },
    {
        "id": 60143,
        "state_id": 1997,
        "country_id": 102,
        "name": "Dabra",
        "latitude": "25.88572000",
        "longitude": "78.33221000",
        "is_active": true
    },
    {
        "id": 60144,
        "state_id": 1997,
        "country_id": 102,
        "name": "Damoh",
        "latitude": "23.75000000",
        "longitude": "79.58333000",
        "is_active": true
    },
    {
        "id": 60145,
        "state_id": 1997,
        "country_id": 102,
        "name": "Datia",
        "latitude": "25.75000000",
        "longitude": "78.50000000",
        "is_active": true
    },
    {
        "id": 60146,
        "state_id": 1997,
        "country_id": 102,
        "name": "Deori Khas",
        "latitude": "23.39017000",
        "longitude": "79.01630000",
        "is_active": true
    },
    {
        "id": 60147,
        "state_id": 1997,
        "country_id": 102,
        "name": "Depalpur",
        "latitude": "22.85095000",
        "longitude": "75.54224000",
        "is_active": true
    },
    {
        "id": 60148,
        "state_id": 1997,
        "country_id": 102,
        "name": "Dewas",
        "latitude": "23.00000000",
        "longitude": "76.16667000",
        "is_active": true
    },
    {
        "id": 60149,
        "state_id": 1997,
        "country_id": 102,
        "name": "Dhamnod",
        "latitude": "22.20928000",
        "longitude": "75.47057000",
        "is_active": true
    },
    {
        "id": 60150,
        "state_id": 1997,
        "country_id": 102,
        "name": "Dhana",
        "latitude": "23.74697000",
        "longitude": "78.86234000",
        "is_active": true
    },
    {
        "id": 60151,
        "state_id": 1997,
        "country_id": 102,
        "name": "Dhar",
        "latitude": "22.59373000",
        "longitude": "75.29774000",
        "is_active": true
    },
    {
        "id": 60152,
        "state_id": 1997,
        "country_id": 102,
        "name": "Dharampuri",
        "latitude": "22.14951000",
        "longitude": "75.34439000",
        "is_active": true
    },
    {
        "id": 60153,
        "state_id": 1997,
        "country_id": 102,
        "name": "Dindori",
        "latitude": "22.80000000",
        "longitude": "81.10000000",
        "is_active": true
    },
    {
        "id": 60154,
        "state_id": 1997,
        "country_id": 102,
        "name": "Etawa",
        "latitude": "24.18351000",
        "longitude": "78.20289000",
        "is_active": true
    },
    {
        "id": 60155,
        "state_id": 1997,
        "country_id": 102,
        "name": "Gadarwara",
        "latitude": "22.92350000",
        "longitude": "78.78490000",
        "is_active": true
    },
    {
        "id": 60156,
        "state_id": 1997,
        "country_id": 102,
        "name": "Garha Brahman",
        "latitude": "23.86873000",
        "longitude": "77.35731000",
        "is_active": true
    },
    {
        "id": 60157,
        "state_id": 1997,
        "country_id": 102,
        "name": "Garhakota",
        "latitude": "23.77910000",
        "longitude": "79.14321000",
        "is_active": true
    },
    {
        "id": 60158,
        "state_id": 1997,
        "country_id": 102,
        "name": "Gautampura",
        "latitude": "22.98664000",
        "longitude": "75.51921000",
        "is_active": true
    },
    {
        "id": 60159,
        "state_id": 1997,
        "country_id": 102,
        "name": "Ghansor",
        "latitude": "22.65976000",
        "longitude": "79.95013000",
        "is_active": true
    },
    {
        "id": 60160,
        "state_id": 1997,
        "country_id": 102,
        "name": "Gogapur",
        "latitude": "23.55746000",
        "longitude": "75.51665000",
        "is_active": true
    },
    {
        "id": 60161,
        "state_id": 1997,
        "country_id": 102,
        "name": "Gohadi",
        "latitude": "26.43278000",
        "longitude": "78.44205000",
        "is_active": true
    },
    {
        "id": 60162,
        "state_id": 1997,
        "country_id": 102,
        "name": "Govindgarh",
        "latitude": "24.37845000",
        "longitude": "81.29644000",
        "is_active": true
    },
    {
        "id": 60163,
        "state_id": 1997,
        "country_id": 102,
        "name": "Guna",
        "latitude": "24.55464000",
        "longitude": "77.20082000",
        "is_active": true
    },
    {
        "id": 60164,
        "state_id": 1997,
        "country_id": 102,
        "name": "Gurh",
        "latitude": "24.50265000",
        "longitude": "81.50037000",
        "is_active": true
    },
    {
        "id": 60165,
        "state_id": 1997,
        "country_id": 102,
        "name": "Gwalior",
        "latitude": "26.22983000",
        "longitude": "78.17337000",
        "is_active": true
    },
    {
        "id": 60166,
        "state_id": 1997,
        "country_id": 102,
        "name": "Harda",
        "latitude": "22.23406000",
        "longitude": "76.96431000",
        "is_active": true
    },
    {
        "id": 60167,
        "state_id": 1997,
        "country_id": 102,
        "name": "Harda Khas",
        "latitude": "22.34414000",
        "longitude": "77.09536000",
        "is_active": true
    },
    {
        "id": 60168,
        "state_id": 1997,
        "country_id": 102,
        "name": "Harpalpur",
        "latitude": "25.28773000",
        "longitude": "79.33279000",
        "is_active": true
    },
    {
        "id": 60169,
        "state_id": 1997,
        "country_id": 102,
        "name": "Harrai",
        "latitude": "22.61428000",
        "longitude": "79.22207000",
        "is_active": true
    },
    {
        "id": 60170,
        "state_id": 1997,
        "country_id": 102,
        "name": "Harsud",
        "latitude": "22.09947000",
        "longitude": "76.73423000",
        "is_active": true
    },
    {
        "id": 60171,
        "state_id": 1997,
        "country_id": 102,
        "name": "Hatod",
        "latitude": "22.79378000",
        "longitude": "75.73928000",
        "is_active": true
    },
    {
        "id": 60172,
        "state_id": 1997,
        "country_id": 102,
        "name": "Hatta",
        "latitude": "24.13406000",
        "longitude": "79.60119000",
        "is_active": true
    },
    {
        "id": 60173,
        "state_id": 1997,
        "country_id": 102,
        "name": "Hindoria",
        "latitude": "23.90345000",
        "longitude": "79.56861000",
        "is_active": true
    },
    {
        "id": 60174,
        "state_id": 1997,
        "country_id": 102,
        "name": "Hoshangabad",
        "latitude": "22.58827000",
        "longitude": "77.98887000",
        "is_active": true
    },
    {
        "id": 60175,
        "state_id": 1997,
        "country_id": 102,
        "name": "Iawar",
        "latitude": "23.00943000",
        "longitude": "76.50070000",
        "is_active": true
    },
    {
        "id": 60176,
        "state_id": 1997,
        "country_id": 102,
        "name": "Ichhawar",
        "latitude": "23.02816000",
        "longitude": "77.01729000",
        "is_active": true
    },
    {
        "id": 60177,
        "state_id": 1997,
        "country_id": 102,
        "name": "Iklehra",
        "latitude": "23.14667000",
        "longitude": "76.39044000",
        "is_active": true
    },
    {
        "id": 60178,
        "state_id": 1997,
        "country_id": 102,
        "name": "Indore",
        "latitude": "22.66667000",
        "longitude": "75.75000000",
        "is_active": true
    },
    {
        "id": 60179,
        "state_id": 1997,
        "country_id": 102,
        "name": "Isagarh",
        "latitude": "24.83906000",
        "longitude": "77.88274000",
        "is_active": true
    },
    {
        "id": 60180,
        "state_id": 1997,
        "country_id": 102,
        "name": "Itarsi",
        "latitude": "22.61477000",
        "longitude": "77.76222000",
        "is_active": true
    },
    {
        "id": 60181,
        "state_id": 1997,
        "country_id": 102,
        "name": "Jabalpur",
        "latitude": "23.16000000",
        "longitude": "79.95000000",
        "is_active": true
    },
    {
        "id": 60182,
        "state_id": 1997,
        "country_id": 102,
        "name": "Jaisinghnagar",
        "latitude": "23.68582000",
        "longitude": "81.39085000",
        "is_active": true
    },
    {
        "id": 60183,
        "state_id": 1997,
        "country_id": 102,
        "name": "Jaithari",
        "latitude": "23.20856000",
        "longitude": "78.61487000",
        "is_active": true
    },
    {
        "id": 60184,
        "state_id": 1997,
        "country_id": 102,
        "name": "Jamai",
        "latitude": "22.19644000",
        "longitude": "78.59191000",
        "is_active": true
    },
    {
        "id": 60185,
        "state_id": 1997,
        "country_id": 102,
        "name": "Jaora",
        "latitude": "23.63783000",
        "longitude": "75.12711000",
        "is_active": true
    },
    {
        "id": 60186,
        "state_id": 1997,
        "country_id": 102,
        "name": "Jatara",
        "latitude": "25.00964000",
        "longitude": "79.04869000",
        "is_active": true
    },
    {
        "id": 60187,
        "state_id": 1997,
        "country_id": 102,
        "name": "Jawad",
        "latitude": "24.59916000",
        "longitude": "74.86261000",
        "is_active": true
    },
    {
        "id": 60188,
        "state_id": 1997,
        "country_id": 102,
        "name": "Jhabua",
        "latitude": "22.76772000",
        "longitude": "74.59087000",
        "is_active": true
    },
    {
        "id": 60189,
        "state_id": 1997,
        "country_id": 102,
        "name": "Jiran",
        "latitude": "24.30871000",
        "longitude": "74.89087000",
        "is_active": true
    },
    {
        "id": 60190,
        "state_id": 1997,
        "country_id": 102,
        "name": "Jobat",
        "latitude": "22.41599000",
        "longitude": "74.56828000",
        "is_active": true
    },
    {
        "id": 60191,
        "state_id": 1997,
        "country_id": 102,
        "name": "Kailaras",
        "latitude": "26.30498000",
        "longitude": "77.61600000",
        "is_active": true
    },
    {
        "id": 60192,
        "state_id": 1997,
        "country_id": 102,
        "name": "Kaimori",
        "latitude": "23.38465000",
        "longitude": "79.74420000",
        "is_active": true
    },
    {
        "id": 60193,
        "state_id": 1997,
        "country_id": 102,
        "name": "Kannod",
        "latitude": "22.66764000",
        "longitude": "76.74286000",
        "is_active": true
    },
    {
        "id": 60194,
        "state_id": 1997,
        "country_id": 102,
        "name": "Kareli",
        "latitude": "22.91533000",
        "longitude": "79.06378000",
        "is_active": true
    },
    {
        "id": 60195,
        "state_id": 1997,
        "country_id": 102,
        "name": "Karera",
        "latitude": "25.45815000",
        "longitude": "78.13583000",
        "is_active": true
    },
    {
        "id": 60196,
        "state_id": 1997,
        "country_id": 102,
        "name": "Karrapur",
        "latitude": "23.94891000",
        "longitude": "78.86584000",
        "is_active": true
    },
    {
        "id": 60197,
        "state_id": 1997,
        "country_id": 102,
        "name": "Kasrawad",
        "latitude": "22.12745000",
        "longitude": "75.61101000",
        "is_active": true
    },
    {
        "id": 60198,
        "state_id": 1997,
        "country_id": 102,
        "name": "Katangi",
        "latitude": "21.77369000",
        "longitude": "79.80513000",
        "is_active": true
    },
    {
        "id": 60199,
        "state_id": 1997,
        "country_id": 102,
        "name": "Katni",
        "latitude": "23.83555000",
        "longitude": "80.39417000",
        "is_active": true
    },
    {
        "id": 60200,
        "state_id": 1997,
        "country_id": 102,
        "name": "Khachrod",
        "latitude": "23.42322000",
        "longitude": "75.28185000",
        "is_active": true
    },
    {
        "id": 60201,
        "state_id": 1997,
        "country_id": 102,
        "name": "Khailar",
        "latitude": "25.34127000",
        "longitude": "78.53133000",
        "is_active": true
    },
    {
        "id": 60202,
        "state_id": 1997,
        "country_id": 102,
        "name": "Khajuraho Group of Monuments",
        "latitude": "24.84809000",
        "longitude": "79.93351000",
        "is_active": true
    },
    {
        "id": 60203,
        "state_id": 1997,
        "country_id": 102,
        "name": "Khamaria",
        "latitude": "23.22558000",
        "longitude": "79.88007000",
        "is_active": true
    },
    {
        "id": 60204,
        "state_id": 1997,
        "country_id": 102,
        "name": "Khandwa",
        "latitude": "21.82427000",
        "longitude": "76.35086000",
        "is_active": true
    },
    {
        "id": 60205,
        "state_id": 1997,
        "country_id": 102,
        "name": "Khandwa district",
        "latitude": "21.75000000",
        "longitude": "76.58333000",
        "is_active": true
    },
    {
        "id": 60206,
        "state_id": 1997,
        "country_id": 102,
        "name": "Khargapur",
        "latitude": "24.82300000",
        "longitude": "79.14400000",
        "is_active": true
    },
    {
        "id": 60207,
        "state_id": 1997,
        "country_id": 102,
        "name": "Khargone",
        "latitude": "21.82306000",
        "longitude": "75.61028000",
        "is_active": true
    },
    {
        "id": 60208,
        "state_id": 1997,
        "country_id": 102,
        "name": "Khategaon",
        "latitude": "22.59573000",
        "longitude": "76.91330000",
        "is_active": true
    },
    {
        "id": 60209,
        "state_id": 1997,
        "country_id": 102,
        "name": "Khilchipur",
        "latitude": "24.03943000",
        "longitude": "76.57800000",
        "is_active": true
    },
    {
        "id": 60210,
        "state_id": 1997,
        "country_id": 102,
        "name": "Khirkiyan",
        "latitude": "22.16732000",
        "longitude": "76.86137000",
        "is_active": true
    },
    {
        "id": 60211,
        "state_id": 1997,
        "country_id": 102,
        "name": "Khujner",
        "latitude": "23.78597000",
        "longitude": "76.61773000",
        "is_active": true
    },
    {
        "id": 60212,
        "state_id": 1997,
        "country_id": 102,
        "name": "Khurai",
        "latitude": "24.04372000",
        "longitude": "78.33014000",
        "is_active": true
    },
    {
        "id": 60213,
        "state_id": 1997,
        "country_id": 102,
        "name": "Kolaras",
        "latitude": "25.21928000",
        "longitude": "77.61167000",
        "is_active": true
    },
    {
        "id": 60214,
        "state_id": 1997,
        "country_id": 102,
        "name": "Korwai",
        "latitude": "24.11774000",
        "longitude": "78.04007000",
        "is_active": true
    },
    {
        "id": 60215,
        "state_id": 1997,
        "country_id": 102,
        "name": "Kotar",
        "latitude": "24.69802000",
        "longitude": "80.98073000",
        "is_active": true
    },
    {
        "id": 60216,
        "state_id": 1997,
        "country_id": 102,
        "name": "Kothi",
        "latitude": "24.75260000",
        "longitude": "80.77751000",
        "is_active": true
    },
    {
        "id": 60217,
        "state_id": 1997,
        "country_id": 102,
        "name": "Kotma",
        "latitude": "23.20383000",
        "longitude": "81.97904000",
        "is_active": true
    },
    {
        "id": 60218,
        "state_id": 1997,
        "country_id": 102,
        "name": "Kotwa",
        "latitude": "25.03080000",
        "longitude": "81.31908000",
        "is_active": true
    },
    {
        "id": 60219,
        "state_id": 1997,
        "country_id": 102,
        "name": "Kukshi",
        "latitude": "22.20677000",
        "longitude": "74.75788000",
        "is_active": true
    },
    {
        "id": 60220,
        "state_id": 1997,
        "country_id": 102,
        "name": "Kumbhraj",
        "latitude": "24.37338000",
        "longitude": "77.04841000",
        "is_active": true
    },
    {
        "id": 60221,
        "state_id": 1997,
        "country_id": 102,
        "name": "Lahar",
        "latitude": "26.19401000",
        "longitude": "78.94137000",
        "is_active": true
    },
    {
        "id": 60222,
        "state_id": 1997,
        "country_id": 102,
        "name": "Lakhnadon",
        "latitude": "22.60049000",
        "longitude": "79.60094000",
        "is_active": true
    },
    {
        "id": 60223,
        "state_id": 1997,
        "country_id": 102,
        "name": "Leteri",
        "latitude": "24.05979000",
        "longitude": "77.40858000",
        "is_active": true
    },
    {
        "id": 60224,
        "state_id": 1997,
        "country_id": 102,
        "name": "Lodhikheda",
        "latitude": "21.58235000",
        "longitude": "78.85911000",
        "is_active": true
    },
    {
        "id": 60225,
        "state_id": 1997,
        "country_id": 102,
        "name": "Machalpur",
        "latitude": "24.12767000",
        "longitude": "76.31672000",
        "is_active": true
    },
    {
        "id": 60226,
        "state_id": 1997,
        "country_id": 102,
        "name": "Madhogarh",
        "latitude": "24.56401000",
        "longitude": "80.91126000",
        "is_active": true
    },
    {
        "id": 60227,
        "state_id": 1997,
        "country_id": 102,
        "name": "Maheshwar",
        "latitude": "22.17592000",
        "longitude": "75.58715000",
        "is_active": true
    },
    {
        "id": 60228,
        "state_id": 1997,
        "country_id": 102,
        "name": "Mahgawan",
        "latitude": "26.49471000",
        "longitude": "78.61593000",
        "is_active": true
    },
    {
        "id": 60229,
        "state_id": 1997,
        "country_id": 102,
        "name": "Maihar",
        "latitude": "24.26594000",
        "longitude": "80.76063000",
        "is_active": true
    },
    {
        "id": 60230,
        "state_id": 1997,
        "country_id": 102,
        "name": "Majholi",
        "latitude": "23.50114000",
        "longitude": "79.92396000",
        "is_active": true
    },
    {
        "id": 60231,
        "state_id": 1997,
        "country_id": 102,
        "name": "Maksi",
        "latitude": "23.25999000",
        "longitude": "76.14567000",
        "is_active": true
    },
    {
        "id": 60232,
        "state_id": 1997,
        "country_id": 102,
        "name": "Malhargarh",
        "latitude": "24.28286000",
        "longitude": "74.99024000",
        "is_active": true
    },
    {
        "id": 60233,
        "state_id": 1997,
        "country_id": 102,
        "name": "Manasa",
        "latitude": "24.47764000",
        "longitude": "75.14095000",
        "is_active": true
    },
    {
        "id": 60234,
        "state_id": 1997,
        "country_id": 102,
        "name": "Manawar",
        "latitude": "22.23566000",
        "longitude": "75.08917000",
        "is_active": true
    },
    {
        "id": 60235,
        "state_id": 1997,
        "country_id": 102,
        "name": "Mandideep",
        "latitude": "23.08166000",
        "longitude": "77.53328000",
        "is_active": true
    },
    {
        "id": 60236,
        "state_id": 1997,
        "country_id": 102,
        "name": "Mandla",
        "latitude": "22.64041000",
        "longitude": "80.51344000",
        "is_active": true
    },
    {
        "id": 60237,
        "state_id": 1997,
        "country_id": 102,
        "name": "Mandleshwar",
        "latitude": "22.17598000",
        "longitude": "75.65995000",
        "is_active": true
    },
    {
        "id": 60238,
        "state_id": 1997,
        "country_id": 102,
        "name": "Mandsaur",
        "latitude": "24.33333000",
        "longitude": "75.25000000",
        "is_active": true
    },
    {
        "id": 60239,
        "state_id": 1997,
        "country_id": 102,
        "name": "Mangawan",
        "latitude": "24.66754000",
        "longitude": "81.54644000",
        "is_active": true
    },
    {
        "id": 60240,
        "state_id": 1997,
        "country_id": 102,
        "name": "Manpur",
        "latitude": "22.43151000",
        "longitude": "75.62107000",
        "is_active": true
    },
    {
        "id": 60241,
        "state_id": 1997,
        "country_id": 102,
        "name": "Mau",
        "latitude": "26.26584000",
        "longitude": "78.67108000",
        "is_active": true
    },
    {
        "id": 60242,
        "state_id": 1997,
        "country_id": 102,
        "name": "Mauganj",
        "latitude": "24.66721000",
        "longitude": "81.87339000",
        "is_active": true
    },
    {
        "id": 60243,
        "state_id": 1997,
        "country_id": 102,
        "name": "Mihona",
        "latitude": "26.28373000",
        "longitude": "78.98048000",
        "is_active": true
    },
    {
        "id": 60244,
        "state_id": 1997,
        "country_id": 102,
        "name": "Mohgaon",
        "latitude": "21.63941000",
        "longitude": "78.73638000",
        "is_active": true
    },
    {
        "id": 60245,
        "state_id": 1997,
        "country_id": 102,
        "name": "Morar",
        "latitude": "26.22640000",
        "longitude": "78.22482000",
        "is_active": true
    },
    {
        "id": 60246,
        "state_id": 1997,
        "country_id": 102,
        "name": "Morena",
        "latitude": "26.16667000",
        "longitude": "77.50000000",
        "is_active": true
    },
    {
        "id": 60247,
        "state_id": 1997,
        "country_id": 102,
        "name": "Multai",
        "latitude": "21.77463000",
        "longitude": "78.25756000",
        "is_active": true
    },
    {
        "id": 60248,
        "state_id": 1997,
        "country_id": 102,
        "name": "Mundi",
        "latitude": "22.06693000",
        "longitude": "76.49326000",
        "is_active": true
    },
    {
        "id": 60249,
        "state_id": 1997,
        "country_id": 102,
        "name": "Mungaoli",
        "latitude": "24.40837000",
        "longitude": "78.09588000",
        "is_active": true
    },
    {
        "id": 60250,
        "state_id": 1997,
        "country_id": 102,
        "name": "Murwara",
        "latitude": "23.83776000",
        "longitude": "80.39405000",
        "is_active": true
    },
    {
        "id": 60251,
        "state_id": 1997,
        "country_id": 102,
        "name": "Nagda",
        "latitude": "23.45834000",
        "longitude": "75.41759000",
        "is_active": true
    },
    {
        "id": 60252,
        "state_id": 1997,
        "country_id": 102,
        "name": "Nagod",
        "latitude": "24.56924000",
        "longitude": "80.58809000",
        "is_active": true
    },
    {
        "id": 60253,
        "state_id": 1997,
        "country_id": 102,
        "name": "Naigarhi",
        "latitude": "24.78686000",
        "longitude": "81.77868000",
        "is_active": true
    },
    {
        "id": 60254,
        "state_id": 1997,
        "country_id": 102,
        "name": "Nainpur",
        "latitude": "22.42996000",
        "longitude": "80.10561000",
        "is_active": true
    },
    {
        "id": 60255,
        "state_id": 1997,
        "country_id": 102,
        "name": "Namli",
        "latitude": "23.46115000",
        "longitude": "75.06036000",
        "is_active": true
    },
    {
        "id": 60256,
        "state_id": 1997,
        "country_id": 102,
        "name": "Naraini",
        "latitude": "25.19033000",
        "longitude": "80.47500000",
        "is_active": true
    },
    {
        "id": 60257,
        "state_id": 1997,
        "country_id": 102,
        "name": "Narayangarh",
        "latitude": "24.27083000",
        "longitude": "75.05007000",
        "is_active": true
    },
    {
        "id": 60258,
        "state_id": 1997,
        "country_id": 102,
        "name": "Narsimhapur",
        "latitude": "22.91667000",
        "longitude": "79.16667000",
        "is_active": true
    },
    {
        "id": 60259,
        "state_id": 1997,
        "country_id": 102,
        "name": "Narsinghgarh",
        "latitude": "23.70758000",
        "longitude": "77.09319000",
        "is_active": true
    },
    {
        "id": 60260,
        "state_id": 1997,
        "country_id": 102,
        "name": "Narwar",
        "latitude": "25.64390000",
        "longitude": "77.91290000",
        "is_active": true
    },
    {
        "id": 60261,
        "state_id": 1997,
        "country_id": 102,
        "name": "Nasrullahganj",
        "latitude": "22.68370000",
        "longitude": "77.27069000",
        "is_active": true
    },
    {
        "id": 60262,
        "state_id": 1997,
        "country_id": 102,
        "name": "Neemuch",
        "latitude": "24.47000000",
        "longitude": "74.87000000",
        "is_active": true
    },
    {
        "id": 60263,
        "state_id": 1997,
        "country_id": 102,
        "name": "Nepanagar",
        "latitude": "21.45380000",
        "longitude": "76.39335000",
        "is_active": true
    },
    {
        "id": 60264,
        "state_id": 1997,
        "country_id": 102,
        "name": "Orchha",
        "latitude": "25.35192000",
        "longitude": "78.64033000",
        "is_active": true
    },
    {
        "id": 60265,
        "state_id": 1997,
        "country_id": 102,
        "name": "Pachmarhi",
        "latitude": "22.46791000",
        "longitude": "78.43312000",
        "is_active": true
    },
    {
        "id": 60266,
        "state_id": 1997,
        "country_id": 102,
        "name": "Palera",
        "latitude": "25.02013000",
        "longitude": "79.22818000",
        "is_active": true
    },
    {
        "id": 60267,
        "state_id": 1997,
        "country_id": 102,
        "name": "Pali",
        "latitude": "23.36453000",
        "longitude": "81.04374000",
        "is_active": true
    },
    {
        "id": 60268,
        "state_id": 1997,
        "country_id": 102,
        "name": "Panagar",
        "latitude": "23.28539000",
        "longitude": "79.99509000",
        "is_active": true
    },
    {
        "id": 60269,
        "state_id": 1997,
        "country_id": 102,
        "name": "Panara",
        "latitude": "22.20568000",
        "longitude": "78.55093000",
        "is_active": true
    },
    {
        "id": 60270,
        "state_id": 1997,
        "country_id": 102,
        "name": "Pandhana",
        "latitude": "21.69816000",
        "longitude": "76.22487000",
        "is_active": true
    },
    {
        "id": 60271,
        "state_id": 1997,
        "country_id": 102,
        "name": "Pandhurna",
        "latitude": "21.59556000",
        "longitude": "78.52628000",
        "is_active": true
    },
    {
        "id": 60272,
        "state_id": 1997,
        "country_id": 102,
        "name": "Panna",
        "latitude": "24.50000000",
        "longitude": "80.25000000",
        "is_active": true
    },
    {
        "id": 60273,
        "state_id": 1997,
        "country_id": 102,
        "name": "Pansemal",
        "latitude": "21.65981000",
        "longitude": "74.69937000",
        "is_active": true
    },
    {
        "id": 60274,
        "state_id": 1997,
        "country_id": 102,
        "name": "Parasia",
        "latitude": "22.19130000",
        "longitude": "78.75904000",
        "is_active": true
    },
    {
        "id": 60275,
        "state_id": 1997,
        "country_id": 102,
        "name": "Patan",
        "latitude": "23.28636000",
        "longitude": "79.68962000",
        "is_active": true
    },
    {
        "id": 60276,
        "state_id": 1997,
        "country_id": 102,
        "name": "Patharia",
        "latitude": "23.89921000",
        "longitude": "79.19393000",
        "is_active": true
    },
    {
        "id": 60277,
        "state_id": 1997,
        "country_id": 102,
        "name": "Pawai",
        "latitude": "24.26635000",
        "longitude": "80.16196000",
        "is_active": true
    },
    {
        "id": 60278,
        "state_id": 1997,
        "country_id": 102,
        "name": "Petlawad",
        "latitude": "23.01102000",
        "longitude": "74.79772000",
        "is_active": true
    },
    {
        "id": 60279,
        "state_id": 1997,
        "country_id": 102,
        "name": "Piploda",
        "latitude": "23.35000000",
        "longitude": "75.43333000",
        "is_active": true
    },
    {
        "id": 60280,
        "state_id": 1997,
        "country_id": 102,
        "name": "Pithampur",
        "latitude": "22.60197000",
        "longitude": "75.69649000",
        "is_active": true
    },
    {
        "id": 60281,
        "state_id": 1997,
        "country_id": 102,
        "name": "Porsa",
        "latitude": "26.67444000",
        "longitude": "78.37081000",
        "is_active": true
    },
    {
        "id": 60282,
        "state_id": 1997,
        "country_id": 102,
        "name": "Punasa",
        "latitude": "22.23507000",
        "longitude": "76.39335000",
        "is_active": true
    },
    {
        "id": 60283,
        "state_id": 1997,
        "country_id": 102,
        "name": "Raghogarh",
        "latitude": "24.44318000",
        "longitude": "77.19768000",
        "is_active": true
    },
    {
        "id": 60284,
        "state_id": 1997,
        "country_id": 102,
        "name": "Rahatgarh",
        "latitude": "23.78968000",
        "longitude": "78.39473000",
        "is_active": true
    },
    {
        "id": 60285,
        "state_id": 1997,
        "country_id": 102,
        "name": "Raisen",
        "latitude": "23.25000000",
        "longitude": "78.08333000",
        "is_active": true
    },
    {
        "id": 60286,
        "state_id": 1997,
        "country_id": 102,
        "name": "Rajgarh",
        "latitude": "22.67821000",
        "longitude": "74.94483000",
        "is_active": true
    },
    {
        "id": 60287,
        "state_id": 1997,
        "country_id": 102,
        "name": "Rajnagar",
        "latitude": "24.88929000",
        "longitude": "79.91178000",
        "is_active": true
    },
    {
        "id": 60288,
        "state_id": 1997,
        "country_id": 102,
        "name": "Rajpur",
        "latitude": "22.30393000",
        "longitude": "74.35568000",
        "is_active": true
    },
    {
        "id": 60289,
        "state_id": 1997,
        "country_id": 102,
        "name": "Rampura",
        "latitude": "24.46700000",
        "longitude": "75.43996000",
        "is_active": true
    },
    {
        "id": 60290,
        "state_id": 1997,
        "country_id": 102,
        "name": "Ranapur",
        "latitude": "22.64704000",
        "longitude": "74.52118000",
        "is_active": true
    },
    {
        "id": 60291,
        "state_id": 1997,
        "country_id": 102,
        "name": "Ratangarh",
        "latitude": "24.81667000",
        "longitude": "75.11667000",
        "is_active": true
    },
    {
        "id": 60292,
        "state_id": 1997,
        "country_id": 102,
        "name": "Ratlam",
        "latitude": "23.33033000",
        "longitude": "75.04032000",
        "is_active": true
    },
    {
        "id": 60293,
        "state_id": 1997,
        "country_id": 102,
        "name": "Rehli",
        "latitude": "23.63722000",
        "longitude": "79.06275000",
        "is_active": true
    },
    {
        "id": 60294,
        "state_id": 1997,
        "country_id": 102,
        "name": "Rehti",
        "latitude": "22.73781000",
        "longitude": "77.43399000",
        "is_active": true
    },
    {
        "id": 60295,
        "state_id": 1997,
        "country_id": 102,
        "name": "Rewa",
        "latitude": "24.53256000",
        "longitude": "81.29234000",
        "is_active": true
    },
    {
        "id": 60296,
        "state_id": 1997,
        "country_id": 102,
        "name": "Sabalgarh",
        "latitude": "26.24918000",
        "longitude": "77.40786000",
        "is_active": true
    },
    {
        "id": 60297,
        "state_id": 1997,
        "country_id": 102,
        "name": "Sagar",
        "latitude": "23.75000000",
        "longitude": "78.75000000",
        "is_active": true
    },
    {
        "id": 60298,
        "state_id": 1997,
        "country_id": 102,
        "name": "Sailana",
        "latitude": "23.46219000",
        "longitude": "74.92318000",
        "is_active": true
    },
    {
        "id": 60299,
        "state_id": 1997,
        "country_id": 102,
        "name": "Sanawad",
        "latitude": "22.17391000",
        "longitude": "76.06993000",
        "is_active": true
    },
    {
        "id": 60300,
        "state_id": 1997,
        "country_id": 102,
        "name": "Sanchi",
        "latitude": "23.48646000",
        "longitude": "77.73780000",
        "is_active": true
    },
    {
        "id": 60301,
        "state_id": 1997,
        "country_id": 102,
        "name": "Sanwer",
        "latitude": "22.97415000",
        "longitude": "75.82710000",
        "is_active": true
    },
    {
        "id": 60302,
        "state_id": 1997,
        "country_id": 102,
        "name": "Sarangpur",
        "latitude": "23.56651000",
        "longitude": "76.47306000",
        "is_active": true
    },
    {
        "id": 60303,
        "state_id": 1997,
        "country_id": 102,
        "name": "Satna",
        "latitude": "24.50000000",
        "longitude": "81.00000000",
        "is_active": true
    },
    {
        "id": 60304,
        "state_id": 1997,
        "country_id": 102,
        "name": "Satwas",
        "latitude": "22.53628000",
        "longitude": "76.68452000",
        "is_active": true
    },
    {
        "id": 60305,
        "state_id": 1997,
        "country_id": 102,
        "name": "Saugor",
        "latitude": "23.83877000",
        "longitude": "78.73874000",
        "is_active": true
    },
    {
        "id": 60306,
        "state_id": 1997,
        "country_id": 102,
        "name": "Sausar",
        "latitude": "21.65576000",
        "longitude": "78.79669000",
        "is_active": true
    },
    {
        "id": 60307,
        "state_id": 1997,
        "country_id": 102,
        "name": "Sehore",
        "latitude": "23.20000000",
        "longitude": "77.08333000",
        "is_active": true
    },
    {
        "id": 60308,
        "state_id": 1997,
        "country_id": 102,
        "name": "Sendhwa",
        "latitude": "21.68562000",
        "longitude": "75.09622000",
        "is_active": true
    },
    {
        "id": 60309,
        "state_id": 1997,
        "country_id": 102,
        "name": "Seondha",
        "latitude": "26.15422000",
        "longitude": "78.78120000",
        "is_active": true
    },
    {
        "id": 60310,
        "state_id": 1997,
        "country_id": 102,
        "name": "Seoni",
        "latitude": "22.08503000",
        "longitude": "79.55037000",
        "is_active": true
    },
    {
        "id": 60311,
        "state_id": 1997,
        "country_id": 102,
        "name": "Seoni Malwa",
        "latitude": "22.45046000",
        "longitude": "77.46650000",
        "is_active": true
    },
    {
        "id": 60312,
        "state_id": 1997,
        "country_id": 102,
        "name": "Shahdol",
        "latitude": "23.50000000",
        "longitude": "81.50000000",
        "is_active": true
    },
    {
        "id": 60313,
        "state_id": 1997,
        "country_id": 102,
        "name": "Shahgarh",
        "latitude": "24.31365000",
        "longitude": "79.11806000",
        "is_active": true
    },
    {
        "id": 60314,
        "state_id": 1997,
        "country_id": 102,
        "name": "Shahpur",
        "latitude": "21.23742000",
        "longitude": "76.22558000",
        "is_active": true
    },
    {
        "id": 60315,
        "state_id": 1997,
        "country_id": 102,
        "name": "Shahpura",
        "latitude": "23.13663000",
        "longitude": "79.66402000",
        "is_active": true
    },
    {
        "id": 60316,
        "state_id": 1997,
        "country_id": 102,
        "name": "Shajapur",
        "latitude": "23.50000000",
        "longitude": "76.25000000",
        "is_active": true
    },
    {
        "id": 60317,
        "state_id": 1997,
        "country_id": 102,
        "name": "Shamgarh",
        "latitude": "24.18817000",
        "longitude": "75.63903000",
        "is_active": true
    },
    {
        "id": 60318,
        "state_id": 1997,
        "country_id": 102,
        "name": "Sheopur",
        "latitude": "25.80000000",
        "longitude": "77.00000000",
        "is_active": true
    },
    {
        "id": 60319,
        "state_id": 1997,
        "country_id": 102,
        "name": "Shivpuri",
        "latitude": "25.42378000",
        "longitude": "77.66223000",
        "is_active": true
    },
    {
        "id": 60320,
        "state_id": 1997,
        "country_id": 102,
        "name": "Shujalpur",
        "latitude": "23.40673000",
        "longitude": "76.70980000",
        "is_active": true
    },
    {
        "id": 60321,
        "state_id": 1997,
        "country_id": 102,
        "name": "Sidhi",
        "latitude": "24.25000000",
        "longitude": "82.00000000",
        "is_active": true
    },
    {
        "id": 60322,
        "state_id": 1997,
        "country_id": 102,
        "name": "Sihora",
        "latitude": "23.48710000",
        "longitude": "80.10404000",
        "is_active": true
    },
    {
        "id": 60323,
        "state_id": 1997,
        "country_id": 102,
        "name": "Simaria",
        "latitude": "24.79497000",
        "longitude": "81.15200000",
        "is_active": true
    },
    {
        "id": 60324,
        "state_id": 1997,
        "country_id": 102,
        "name": "Singoli",
        "latitude": "24.96667000",
        "longitude": "75.30000000",
        "is_active": true
    },
    {
        "id": 60325,
        "state_id": 1997,
        "country_id": 102,
        "name": "Singrauli",
        "latitude": "24.19973000",
        "longitude": "82.67535000",
        "is_active": true
    },
    {
        "id": 60326,
        "state_id": 1997,
        "country_id": 102,
        "name": "Sirmaur",
        "latitude": "24.83648000",
        "longitude": "81.36448000",
        "is_active": true
    },
    {
        "id": 60327,
        "state_id": 1997,
        "country_id": 102,
        "name": "Sironj",
        "latitude": "24.10313000",
        "longitude": "77.69055000",
        "is_active": true
    },
    {
        "id": 60328,
        "state_id": 1997,
        "country_id": 102,
        "name": "Sitamau",
        "latitude": "24.01473000",
        "longitude": "75.35324000",
        "is_active": true
    },
    {
        "id": 60329,
        "state_id": 1997,
        "country_id": 102,
        "name": "Sohagi",
        "latitude": "24.98181000",
        "longitude": "81.69558000",
        "is_active": true
    },
    {
        "id": 60330,
        "state_id": 1997,
        "country_id": 102,
        "name": "Sohagpur",
        "latitude": "22.70055000",
        "longitude": "78.19522000",
        "is_active": true
    },
    {
        "id": 60331,
        "state_id": 1997,
        "country_id": 102,
        "name": "Sultanpur",
        "latitude": "23.13812000",
        "longitude": "77.93404000",
        "is_active": true
    },
    {
        "id": 60332,
        "state_id": 1997,
        "country_id": 102,
        "name": "Susner",
        "latitude": "23.94667000",
        "longitude": "76.08825000",
        "is_active": true
    },
    {
        "id": 60333,
        "state_id": 1997,
        "country_id": 102,
        "name": "Tal",
        "latitude": "23.71979000",
        "longitude": "75.38514000",
        "is_active": true
    },
    {
        "id": 60334,
        "state_id": 1997,
        "country_id": 102,
        "name": "Talen",
        "latitude": "23.56949000",
        "longitude": "76.72821000",
        "is_active": true
    },
    {
        "id": 60335,
        "state_id": 1997,
        "country_id": 102,
        "name": "Tarana",
        "latitude": "23.33383000",
        "longitude": "76.04253000",
        "is_active": true
    },
    {
        "id": 60336,
        "state_id": 1997,
        "country_id": 102,
        "name": "Tekanpur",
        "latitude": "25.99401000",
        "longitude": "78.28322000",
        "is_active": true
    },
    {
        "id": 60337,
        "state_id": 1997,
        "country_id": 102,
        "name": "Tendukheda",
        "latitude": "23.39620000",
        "longitude": "79.53947000",
        "is_active": true
    },
    {
        "id": 60338,
        "state_id": 1997,
        "country_id": 102,
        "name": "Teonthar",
        "latitude": "24.98207000",
        "longitude": "81.64194000",
        "is_active": true
    },
    {
        "id": 60339,
        "state_id": 1997,
        "country_id": 102,
        "name": "Thandla",
        "latitude": "23.00959000",
        "longitude": "74.57747000",
        "is_active": true
    },
    {
        "id": 60340,
        "state_id": 1997,
        "country_id": 102,
        "name": "Tikamgarh",
        "latitude": "24.74327000",
        "longitude": "78.83061000",
        "is_active": true
    },
    {
        "id": 60341,
        "state_id": 1997,
        "country_id": 102,
        "name": "Tirodi",
        "latitude": "21.68522000",
        "longitude": "79.71906000",
        "is_active": true
    },
    {
        "id": 60342,
        "state_id": 1997,
        "country_id": 102,
        "name": "Udaipura",
        "latitude": "23.07434000",
        "longitude": "78.51108000",
        "is_active": true
    },
    {
        "id": 60343,
        "state_id": 1997,
        "country_id": 102,
        "name": "Ujjain",
        "latitude": "23.41667000",
        "longitude": "75.50000000",
        "is_active": true
    },
    {
        "id": 60344,
        "state_id": 1997,
        "country_id": 102,
        "name": "Ukwa",
        "latitude": "21.97102000",
        "longitude": "80.46625000",
        "is_active": true
    },
    {
        "id": 60345,
        "state_id": 1997,
        "country_id": 102,
        "name": "Umaria",
        "latitude": "23.52473000",
        "longitude": "80.83716000",
        "is_active": true
    },
    {
        "id": 60346,
        "state_id": 1997,
        "country_id": 102,
        "name": "Umaria District",
        "latitude": "23.52874000",
        "longitude": "80.83054000",
        "is_active": true
    },
    {
        "id": 60347,
        "state_id": 1997,
        "country_id": 102,
        "name": "Umri",
        "latitude": "26.51056000",
        "longitude": "78.93667000",
        "is_active": true
    },
    {
        "id": 60348,
        "state_id": 1997,
        "country_id": 102,
        "name": "Unhel",
        "latitude": "23.33794000",
        "longitude": "75.55931000",
        "is_active": true
    },
    {
        "id": 60349,
        "state_id": 1997,
        "country_id": 102,
        "name": "Vidisha",
        "latitude": "23.91667000",
        "longitude": "78.00000000",
        "is_active": true
    },
    {
        "id": 60350,
        "state_id": 1997,
        "country_id": 102,
        "name": "Waraseoni",
        "latitude": "21.76184000",
        "longitude": "80.04301000",
        "is_active": true
    },
    {
        "id": 60351,
        "state_id": 1998,
        "country_id": 102,
        "name": "Aizawl",
        "latitude": "23.80000000",
        "longitude": "92.90000000",
        "is_active": true
    },
    {
        "id": 60352,
        "state_id": 1998,
        "country_id": 102,
        "name": "Champhai",
        "latitude": "23.47444000",
        "longitude": "93.32556000",
        "is_active": true
    },
    {
        "id": 60353,
        "state_id": 1998,
        "country_id": 102,
        "name": "Darlawn",
        "latitude": "24.01336000",
        "longitude": "92.92439000",
        "is_active": true
    },
    {
        "id": 60354,
        "state_id": 1998,
        "country_id": 102,
        "name": "Khawhai",
        "latitude": "23.37807000",
        "longitude": "93.12797000",
        "is_active": true
    },
    {
        "id": 60355,
        "state_id": 1998,
        "country_id": 102,
        "name": "Kolasib",
        "latitude": "24.22388000",
        "longitude": "92.67869000",
        "is_active": true
    },
    {
        "id": 60356,
        "state_id": 1998,
        "country_id": 102,
        "name": "Kolasib district",
        "latitude": "24.22215000",
        "longitude": "92.67697000",
        "is_active": true
    },
    {
        "id": 60357,
        "state_id": 1998,
        "country_id": 102,
        "name": "Lawngtlai",
        "latitude": "22.53000000",
        "longitude": "92.90000000",
        "is_active": true
    },
    {
        "id": 60358,
        "state_id": 1998,
        "country_id": 102,
        "name": "Lunglei",
        "latitude": "22.90000000",
        "longitude": "92.75000000",
        "is_active": true
    },
    {
        "id": 60359,
        "state_id": 1998,
        "country_id": 102,
        "name": "Mamit",
        "latitude": "23.78492000",
        "longitude": "92.46939000",
        "is_active": true
    },
    {
        "id": 60360,
        "state_id": 1998,
        "country_id": 102,
        "name": "North Vanlaiphai",
        "latitude": "23.13227000",
        "longitude": "93.06532000",
        "is_active": true
    },
    {
        "id": 60361,
        "state_id": 1998,
        "country_id": 102,
        "name": "Saiha",
        "latitude": "22.49183000",
        "longitude": "92.98143000",
        "is_active": true
    },
    {
        "id": 60362,
        "state_id": 1998,
        "country_id": 102,
        "name": "Sairang",
        "latitude": "23.81034000",
        "longitude": "92.65226000",
        "is_active": true
    },
    {
        "id": 60363,
        "state_id": 1998,
        "country_id": 102,
        "name": "Saitlaw",
        "latitude": "23.97187000",
        "longitude": "92.57454000",
        "is_active": true
    },
    {
        "id": 60364,
        "state_id": 1998,
        "country_id": 102,
        "name": "Serchhip",
        "latitude": "23.28172000",
        "longitude": "92.90039000",
        "is_active": true
    },
    {
        "id": 60365,
        "state_id": 1998,
        "country_id": 102,
        "name": "Thenzawl",
        "latitude": "23.31667000",
        "longitude": "92.75000000",
        "is_active": true
    },
    {
        "id": 60366,
        "state_id": 1999,
        "country_id": 102,
        "name": "Dimapur",
        "latitude": "25.77852000",
        "longitude": "93.78508000",
        "is_active": true
    },
    {
        "id": 60367,
        "state_id": 1999,
        "country_id": 102,
        "name": "Kohima",
        "latitude": "25.67467000",
        "longitude": "94.11099000",
        "is_active": true
    },
    {
        "id": 60368,
        "state_id": 1999,
        "country_id": 102,
        "name": "Mokokchung",
        "latitude": "26.31393000",
        "longitude": "94.51675000",
        "is_active": true
    },
    {
        "id": 60369,
        "state_id": 1999,
        "country_id": 102,
        "name": "Mon",
        "latitude": "26.75000000",
        "longitude": "94.83333000",
        "is_active": true
    },
    {
        "id": 60370,
        "state_id": 1999,
        "country_id": 102,
        "name": "Peren",
        "latitude": "25.51276000",
        "longitude": "93.73716000",
        "is_active": true
    },
    {
        "id": 60371,
        "state_id": 1999,
        "country_id": 102,
        "name": "Phek",
        "latitude": "25.75000000",
        "longitude": "94.50000000",
        "is_active": true
    },
    {
        "id": 60372,
        "state_id": 1999,
        "country_id": 102,
        "name": "Tuensang",
        "latitude": "26.26704000",
        "longitude": "94.82415000",
        "is_active": true
    },
    {
        "id": 60373,
        "state_id": 1999,
        "country_id": 102,
        "name": "Tuensang District",
        "latitude": "26.25000000",
        "longitude": "94.75000000",
        "is_active": true
    },
    {
        "id": 60374,
        "state_id": 1999,
        "country_id": 102,
        "name": "Wokha",
        "latitude": "26.16667000",
        "longitude": "94.25000000",
        "is_active": true
    },
    {
        "id": 60375,
        "state_id": 1999,
        "country_id": 102,
        "name": "Zunheboto",
        "latitude": "26.00000000",
        "longitude": "94.50000000",
        "is_active": true
    },
    {
        "id": 60376,
        "state_id": 2000,
        "country_id": 102,
        "name": "Angul",
        "latitude": "20.84089000",
        "longitude": "85.10192000",
        "is_active": true
    },
    {
        "id": 60377,
        "state_id": 2000,
        "country_id": 102,
        "name": "Angul District",
        "latitude": "20.84903000",
        "longitude": "85.06079000",
        "is_active": true
    },
    {
        "id": 60378,
        "state_id": 2000,
        "country_id": 102,
        "name": "Asika",
        "latitude": "19.61114000",
        "longitude": "84.65998000",
        "is_active": true
    },
    {
        "id": 60379,
        "state_id": 2000,
        "country_id": 102,
        "name": "Athagarh",
        "latitude": "20.51999000",
        "longitude": "85.62965000",
        "is_active": true
    },
    {
        "id": 60380,
        "state_id": 2000,
        "country_id": 102,
        "name": "Bada Barabil",
        "latitude": "22.11186000",
        "longitude": "85.38684000",
        "is_active": true
    },
    {
        "id": 60381,
        "state_id": 2000,
        "country_id": 102,
        "name": "Balangir",
        "latitude": "20.75000000",
        "longitude": "83.25000000",
        "is_active": true
    },
    {
        "id": 60382,
        "state_id": 2000,
        "country_id": 102,
        "name": "Balasore",
        "latitude": "21.49266000",
        "longitude": "86.93348000",
        "is_active": true
    },
    {
        "id": 60383,
        "state_id": 2000,
        "country_id": 102,
        "name": "Baleshwar",
        "latitude": "21.50000000",
        "longitude": "86.75000000",
        "is_active": true
    },
    {
        "id": 60384,
        "state_id": 2000,
        "country_id": 102,
        "name": "Balimila",
        "latitude": "18.25167000",
        "longitude": "82.10659000",
        "is_active": true
    },
    {
        "id": 60385,
        "state_id": 2000,
        "country_id": 102,
        "name": "Balugaon",
        "latitude": "20.17838000",
        "longitude": "85.11327000",
        "is_active": true
    },
    {
        "id": 60386,
        "state_id": 2000,
        "country_id": 102,
        "name": "Banapur",
        "latitude": "19.77889000",
        "longitude": "85.17033000",
        "is_active": true
    },
    {
        "id": 60387,
        "state_id": 2000,
        "country_id": 102,
        "name": "Banki",
        "latitude": "20.37912000",
        "longitude": "85.52953000",
        "is_active": true
    },
    {
        "id": 60388,
        "state_id": 2000,
        "country_id": 102,
        "name": "Banposh",
        "latitude": "22.24834000",
        "longitude": "84.81044000",
        "is_active": true
    },
    {
        "id": 60389,
        "state_id": 2000,
        "country_id": 102,
        "name": "Baragarh",
        "latitude": "21.33333000",
        "longitude": "83.61667000",
        "is_active": true
    },
    {
        "id": 60390,
        "state_id": 2000,
        "country_id": 102,
        "name": "Barbil",
        "latitude": "22.10194000",
        "longitude": "85.37752000",
        "is_active": true
    },
    {
        "id": 60391,
        "state_id": 2000,
        "country_id": 102,
        "name": "Bargarh",
        "latitude": "21.33348000",
        "longitude": "83.61905000",
        "is_active": true
    },
    {
        "id": 60392,
        "state_id": 2000,
        "country_id": 102,
        "name": "Barpali",
        "latitude": "21.19005000",
        "longitude": "83.58721000",
        "is_active": true
    },
    {
        "id": 60393,
        "state_id": 2000,
        "country_id": 102,
        "name": "Basudebpur",
        "latitude": "21.11974000",
        "longitude": "86.72896000",
        "is_active": true
    },
    {
        "id": 60394,
        "state_id": 2000,
        "country_id": 102,
        "name": "Baud",
        "latitude": "20.83773000",
        "longitude": "84.32618000",
        "is_active": true
    },
    {
        "id": 60395,
        "state_id": 2000,
        "country_id": 102,
        "name": "Baudh",
        "latitude": "20.83300000",
        "longitude": "84.33300000",
        "is_active": true
    },
    {
        "id": 60396,
        "state_id": 2000,
        "country_id": 102,
        "name": "Belaguntha",
        "latitude": "19.88249000",
        "longitude": "84.63801000",
        "is_active": true
    },
    {
        "id": 60397,
        "state_id": 2000,
        "country_id": 102,
        "name": "Bhadrak",
        "latitude": "21.00000000",
        "longitude": "86.60000000",
        "is_active": true
    },
    {
        "id": 60398,
        "state_id": 2000,
        "country_id": 102,
        "name": "Bhadrakh",
        "latitude": "21.05447000",
        "longitude": "86.51560000",
        "is_active": true
    },
    {
        "id": 60399,
        "state_id": 2000,
        "country_id": 102,
        "name": "Bhanjanagar",
        "latitude": "19.92719000",
        "longitude": "84.58201000",
        "is_active": true
    },
    {
        "id": 60400,
        "state_id": 2000,
        "country_id": 102,
        "name": "Bhawanipatna",
        "latitude": "19.90717000",
        "longitude": "83.16697000",
        "is_active": true
    },
    {
        "id": 60401,
        "state_id": 2000,
        "country_id": 102,
        "name": "Bhuban",
        "latitude": "20.88197000",
        "longitude": "85.83334000",
        "is_active": true
    },
    {
        "id": 60402,
        "state_id": 2000,
        "country_id": 102,
        "name": "Bhubaneshwar",
        "latitude": "20.27241000",
        "longitude": "85.83385000",
        "is_active": true
    },
    {
        "id": 60403,
        "state_id": 2000,
        "country_id": 102,
        "name": "Binka",
        "latitude": "21.02626000",
        "longitude": "83.81197000",
        "is_active": true
    },
    {
        "id": 60404,
        "state_id": 2000,
        "country_id": 102,
        "name": "Birmitrapur",
        "latitude": "22.40000000",
        "longitude": "84.76667000",
        "is_active": true
    },
    {
        "id": 60405,
        "state_id": 2000,
        "country_id": 102,
        "name": "Bolanikhodan",
        "latitude": "22.11312000",
        "longitude": "85.33645000",
        "is_active": true
    },
    {
        "id": 60406,
        "state_id": 2000,
        "country_id": 102,
        "name": "Brahmapur",
        "latitude": "19.31151000",
        "longitude": "84.79290000",
        "is_active": true
    },
    {
        "id": 60407,
        "state_id": 2000,
        "country_id": 102,
        "name": "Brajarajnagar",
        "latitude": "21.81667000",
        "longitude": "83.91667000",
        "is_active": true
    },
    {
        "id": 60408,
        "state_id": 2000,
        "country_id": 102,
        "name": "Buguda",
        "latitude": "19.80806000",
        "longitude": "84.79084000",
        "is_active": true
    },
    {
        "id": 60409,
        "state_id": 2000,
        "country_id": 102,
        "name": "Burla",
        "latitude": "21.50976000",
        "longitude": "83.87259000",
        "is_active": true
    },
    {
        "id": 60410,
        "state_id": 2000,
        "country_id": 102,
        "name": "Champua",
        "latitude": "22.06734000",
        "longitude": "85.66463000",
        "is_active": true
    },
    {
        "id": 60411,
        "state_id": 2000,
        "country_id": 102,
        "name": "Chandbali",
        "latitude": "20.77519000",
        "longitude": "86.74139000",
        "is_active": true
    },
    {
        "id": 60412,
        "state_id": 2000,
        "country_id": 102,
        "name": "Chatrapur",
        "latitude": "19.35574000",
        "longitude": "84.98359000",
        "is_active": true
    },
    {
        "id": 60413,
        "state_id": 2000,
        "country_id": 102,
        "name": "Chikitigarh",
        "latitude": "19.20233000",
        "longitude": "84.61450000",
        "is_active": true
    },
    {
        "id": 60414,
        "state_id": 2000,
        "country_id": 102,
        "name": "Chittarkonda",
        "latitude": "18.12533000",
        "longitude": "82.10890000",
        "is_active": true
    },
    {
        "id": 60415,
        "state_id": 2000,
        "country_id": 102,
        "name": "Cuttack",
        "latitude": "20.50000000",
        "longitude": "86.25000000",
        "is_active": true
    },
    {
        "id": 60416,
        "state_id": 2000,
        "country_id": 102,
        "name": "Daitari",
        "latitude": "21.10000000",
        "longitude": "85.75000000",
        "is_active": true
    },
    {
        "id": 60417,
        "state_id": 2000,
        "country_id": 102,
        "name": "Deogarh",
        "latitude": "21.53827000",
        "longitude": "84.73337000",
        "is_active": true
    },
    {
        "id": 60418,
        "state_id": 2000,
        "country_id": 102,
        "name": "Dhenkanal",
        "latitude": "20.75000000",
        "longitude": "85.50000000",
        "is_active": true
    },
    {
        "id": 60419,
        "state_id": 2000,
        "country_id": 102,
        "name": "Digapahandi",
        "latitude": "19.37275000",
        "longitude": "84.57184000",
        "is_active": true
    },
    {
        "id": 60420,
        "state_id": 2000,
        "country_id": 102,
        "name": "Gajapati",
        "latitude": "18.91000000",
        "longitude": "84.20000000",
        "is_active": true
    },
    {
        "id": 60421,
        "state_id": 2000,
        "country_id": 102,
        "name": "Ganjam",
        "latitude": "19.38705000",
        "longitude": "85.05079000",
        "is_active": true
    },
    {
        "id": 60422,
        "state_id": 2000,
        "country_id": 102,
        "name": "Gopalpur",
        "latitude": "19.25861000",
        "longitude": "84.90517000",
        "is_active": true
    },
    {
        "id": 60423,
        "state_id": 2000,
        "country_id": 102,
        "name": "Gudari",
        "latitude": "19.34762000",
        "longitude": "83.78128000",
        "is_active": true
    },
    {
        "id": 60424,
        "state_id": 2000,
        "country_id": 102,
        "name": "Gunupur",
        "latitude": "19.08040000",
        "longitude": "83.80879000",
        "is_active": true
    },
    {
        "id": 60425,
        "state_id": 2000,
        "country_id": 102,
        "name": "Hinjilikatu",
        "latitude": "19.48166000",
        "longitude": "84.74489000",
        "is_active": true
    },
    {
        "id": 60426,
        "state_id": 2000,
        "country_id": 102,
        "name": "Hirakud",
        "latitude": "21.52502000",
        "longitude": "83.87275000",
        "is_active": true
    },
    {
        "id": 60427,
        "state_id": 2000,
        "country_id": 102,
        "name": "Jagatsinghapur",
        "latitude": "20.25570000",
        "longitude": "86.17112000",
        "is_active": true
    },
    {
        "id": 60428,
        "state_id": 2000,
        "country_id": 102,
        "name": "Jagatsinghpur",
        "latitude": "20.20000000",
        "longitude": "86.30000000",
        "is_active": true
    },
    {
        "id": 60429,
        "state_id": 2000,
        "country_id": 102,
        "name": "Jajpur",
        "latitude": "20.84149000",
        "longitude": "86.31237000",
        "is_active": true
    },
    {
        "id": 60430,
        "state_id": 2000,
        "country_id": 102,
        "name": "Jaleshwar",
        "latitude": "21.80176000",
        "longitude": "87.22250000",
        "is_active": true
    },
    {
        "id": 60431,
        "state_id": 2000,
        "country_id": 102,
        "name": "Jatani",
        "latitude": "20.15975000",
        "longitude": "85.70742000",
        "is_active": true
    },
    {
        "id": 60432,
        "state_id": 2000,
        "country_id": 102,
        "name": "Jeypore",
        "latitude": "18.85630000",
        "longitude": "82.57160000",
        "is_active": true
    },
    {
        "id": 60433,
        "state_id": 2000,
        "country_id": 102,
        "name": "Jharsuguda",
        "latitude": "21.85531000",
        "longitude": "84.00698000",
        "is_active": true
    },
    {
        "id": 60434,
        "state_id": 2000,
        "country_id": 102,
        "name": "Jharsuguda District",
        "latitude": "21.85000000",
        "longitude": "84.00000000",
        "is_active": true
    },
    {
        "id": 60435,
        "state_id": 2000,
        "country_id": 102,
        "name": "Kaintragarh",
        "latitude": "20.72115000",
        "longitude": "84.53514000",
        "is_active": true
    },
    {
        "id": 60436,
        "state_id": 2000,
        "country_id": 102,
        "name": "Kalahandi",
        "latitude": "19.75000000",
        "longitude": "83.00000000",
        "is_active": true
    },
    {
        "id": 60437,
        "state_id": 2000,
        "country_id": 102,
        "name": "Kamakhyanagar",
        "latitude": "20.93385000",
        "longitude": "85.54489000",
        "is_active": true
    },
    {
        "id": 60438,
        "state_id": 2000,
        "country_id": 102,
        "name": "Kandhamal",
        "latitude": "20.30000000",
        "longitude": "84.00000000",
        "is_active": true
    },
    {
        "id": 60439,
        "state_id": 2000,
        "country_id": 102,
        "name": "Kantabanji",
        "latitude": "20.46709000",
        "longitude": "82.92042000",
        "is_active": true
    },
    {
        "id": 60440,
        "state_id": 2000,
        "country_id": 102,
        "name": "Kantilo",
        "latitude": "20.36152000",
        "longitude": "85.19212000",
        "is_active": true
    },
    {
        "id": 60441,
        "state_id": 2000,
        "country_id": 102,
        "name": "Kendrapara",
        "latitude": "20.50000000",
        "longitude": "86.50000000",
        "is_active": true
    },
    {
        "id": 60442,
        "state_id": 2000,
        "country_id": 102,
        "name": "Kendraparha",
        "latitude": "20.50166000",
        "longitude": "86.42227000",
        "is_active": true
    },
    {
        "id": 60443,
        "state_id": 2000,
        "country_id": 102,
        "name": "Kendujhar",
        "latitude": "21.50000000",
        "longitude": "85.50000000",
        "is_active": true
    },
    {
        "id": 60444,
        "state_id": 2000,
        "country_id": 102,
        "name": "Kesinga",
        "latitude": "20.18778000",
        "longitude": "83.21949000",
        "is_active": true
    },
    {
        "id": 60445,
        "state_id": 2000,
        "country_id": 102,
        "name": "Khallikot",
        "latitude": "19.60908000",
        "longitude": "85.08609000",
        "is_active": true
    },
    {
        "id": 60446,
        "state_id": 2000,
        "country_id": 102,
        "name": "Kharhial",
        "latitude": "20.28845000",
        "longitude": "82.76060000",
        "is_active": true
    },
    {
        "id": 60447,
        "state_id": 2000,
        "country_id": 102,
        "name": "Khordha",
        "latitude": "20.20000000",
        "longitude": "85.60000000",
        "is_active": true
    },
    {
        "id": 60448,
        "state_id": 2000,
        "country_id": 102,
        "name": "Khurda",
        "latitude": "20.18268000",
        "longitude": "85.61629000",
        "is_active": true
    },
    {
        "id": 60449,
        "state_id": 2000,
        "country_id": 102,
        "name": "Kiri Buru",
        "latitude": "22.08333000",
        "longitude": "85.35000000",
        "is_active": true
    },
    {
        "id": 60450,
        "state_id": 2000,
        "country_id": 102,
        "name": "Kodala",
        "latitude": "19.62425000",
        "longitude": "84.94075000",
        "is_active": true
    },
    {
        "id": 60451,
        "state_id": 2000,
        "country_id": 102,
        "name": "Konarka",
        "latitude": "19.89758000",
        "longitude": "86.11413000",
        "is_active": true
    },
    {
        "id": 60452,
        "state_id": 2000,
        "country_id": 102,
        "name": "Koraput",
        "latitude": "19.00000000",
        "longitude": "83.00000000",
        "is_active": true
    },
    {
        "id": 60453,
        "state_id": 2000,
        "country_id": 102,
        "name": "Kuchaiburi",
        "latitude": "22.26675000",
        "longitude": "86.17385000",
        "is_active": true
    },
    {
        "id": 60454,
        "state_id": 2000,
        "country_id": 102,
        "name": "Kuchinda",
        "latitude": "21.74356000",
        "longitude": "84.34848000",
        "is_active": true
    },
    {
        "id": 60455,
        "state_id": 2000,
        "country_id": 102,
        "name": "Malakanagiri",
        "latitude": "18.36428000",
        "longitude": "81.88800000",
        "is_active": true
    },
    {
        "id": 60456,
        "state_id": 2000,
        "country_id": 102,
        "name": "Malkangiri",
        "latitude": "18.25000000",
        "longitude": "81.95000000",
        "is_active": true
    },
    {
        "id": 60457,
        "state_id": 2000,
        "country_id": 102,
        "name": "Mayurbhanj",
        "latitude": "21.75000000",
        "longitude": "86.50000000",
        "is_active": true
    },
    {
        "id": 60458,
        "state_id": 2000,
        "country_id": 102,
        "name": "Nabarangpur",
        "latitude": "19.23330000",
        "longitude": "82.55000000",
        "is_active": true
    },
    {
        "id": 60459,
        "state_id": 2000,
        "country_id": 102,
        "name": "Nayagarh",
        "latitude": "20.12882000",
        "longitude": "85.09626000",
        "is_active": true
    },
    {
        "id": 60460,
        "state_id": 2000,
        "country_id": 102,
        "name": "Nayagarh District",
        "latitude": "20.13000000",
        "longitude": "85.10000000",
        "is_active": true
    },
    {
        "id": 60461,
        "state_id": 2000,
        "country_id": 102,
        "name": "Nilgiri",
        "latitude": "21.46235000",
        "longitude": "86.76794000",
        "is_active": true
    },
    {
        "id": 60462,
        "state_id": 2000,
        "country_id": 102,
        "name": "Nimaparha",
        "latitude": "20.05756000",
        "longitude": "86.00436000",
        "is_active": true
    },
    {
        "id": 60463,
        "state_id": 2000,
        "country_id": 102,
        "name": "Nowrangapur",
        "latitude": "19.23114000",
        "longitude": "82.54826000",
        "is_active": true
    },
    {
        "id": 60464,
        "state_id": 2000,
        "country_id": 102,
        "name": "Nuapada",
        "latitude": "20.60000000",
        "longitude": "82.50000000",
        "is_active": true
    },
    {
        "id": 60465,
        "state_id": 2000,
        "country_id": 102,
        "name": "Padampur",
        "latitude": "20.99932000",
        "longitude": "83.06325000",
        "is_active": true
    },
    {
        "id": 60466,
        "state_id": 2000,
        "country_id": 102,
        "name": "Paradip Garh",
        "latitude": "20.31641000",
        "longitude": "86.60850000",
        "is_active": true
    },
    {
        "id": 60467,
        "state_id": 2000,
        "country_id": 102,
        "name": "Patamundai",
        "latitude": "20.57806000",
        "longitude": "86.56063000",
        "is_active": true
    },
    {
        "id": 60468,
        "state_id": 2000,
        "country_id": 102,
        "name": "Patnagarh",
        "latitude": "20.70833000",
        "longitude": "83.13263000",
        "is_active": true
    },
    {
        "id": 60469,
        "state_id": 2000,
        "country_id": 102,
        "name": "Phulbani",
        "latitude": "20.48101000",
        "longitude": "84.23063000",
        "is_active": true
    },
    {
        "id": 60470,
        "state_id": 2000,
        "country_id": 102,
        "name": "Pipili",
        "latitude": "20.11357000",
        "longitude": "85.83147000",
        "is_active": true
    },
    {
        "id": 60471,
        "state_id": 2000,
        "country_id": 102,
        "name": "Polasara",
        "latitude": "19.69386000",
        "longitude": "84.81401000",
        "is_active": true
    },
    {
        "id": 60472,
        "state_id": 2000,
        "country_id": 102,
        "name": "Puri",
        "latitude": "19.90000000",
        "longitude": "85.60000000",
        "is_active": true
    },