[
    {
        "id": 135001,
        "state_id": 4721,
        "country_id": 237,
        "name": "Walled Lake",
        "latitude": "42.53781000",
        "longitude": "-83.48105000",
        "is_active": true
    },
    {
        "id": 135002,
        "state_id": 4721,
        "country_id": 237,
        "name": "Warren",
        "latitude": "42.49044000",
        "longitude": "-83.01304000",
        "is_active": true
    },
    {
        "id": 135003,
        "state_id": 4721,
        "country_id": 237,
        "name": "Washtenaw County",
        "latitude": "42.25323000",
        "longitude": "-83.83877000",
        "is_active": true
    },
    {
        "id": 135004,
        "state_id": 4721,
        "country_id": 237,
        "name": "Waterford",
        "latitude": "42.69303000",
        "longitude": "-83.41181000",
        "is_active": true
    },
    {
        "id": 135005,
        "state_id": 4721,
        "country_id": 237,
        "name": "Watervliet",
        "latitude": "42.18671000",
        "longitude": "-86.26058000",
        "is_active": true
    },
    {
        "id": 135006,
        "state_id": 4721,
        "country_id": 237,
        "name": "Waverly",
        "latitude": "42.73920000",
        "longitude": "-84.62081000",
        "is_active": true
    },
    {
        "id": 135007,
        "state_id": 4721,
        "country_id": 237,
        "name": "Wayland",
        "latitude": "42.67392000",
        "longitude": "-85.64474000",
        "is_active": true
    },
    {
        "id": 135008,
        "state_id": 4721,
        "country_id": 237,
        "name": "Wayne",
        "latitude": "42.28143000",
        "longitude": "-83.38632000",
        "is_active": true
    },
    {
        "id": 135009,
        "state_id": 4721,
        "country_id": 237,
        "name": "Wayne County",
        "latitude": "42.28478000",
        "longitude": "-83.26113000",
        "is_active": true
    },
    {
        "id": 135010,
        "state_id": 4721,
        "country_id": 237,
        "name": "Webberville",
        "latitude": "42.66698000",
        "longitude": "-84.17413000",
        "is_active": true
    },
    {
        "id": 135011,
        "state_id": 4721,
        "country_id": 237,
        "name": "West Bloomfield Township",
        "latitude": "42.56891000",
        "longitude": "-83.38356000",
        "is_active": true
    },
    {
        "id": 135012,
        "state_id": 4721,
        "country_id": 237,
        "name": "West Branch",
        "latitude": "44.27641000",
        "longitude": "-84.23861000",
        "is_active": true
    },
    {
        "id": 135013,
        "state_id": 4721,
        "country_id": 237,
        "name": "West Ishpeming",
        "latitude": "46.48355000",
        "longitude": "-87.70097000",
        "is_active": true
    },
    {
        "id": 135014,
        "state_id": 4721,
        "country_id": 237,
        "name": "West Monroe",
        "latitude": "41.91393000",
        "longitude": "-83.43160000",
        "is_active": true
    },
    {
        "id": 135015,
        "state_id": 4721,
        "country_id": 237,
        "name": "Westland",
        "latitude": "42.32420000",
        "longitude": "-83.40021000",
        "is_active": true
    },
    {
        "id": 135016,
        "state_id": 4721,
        "country_id": 237,
        "name": "Westwood",
        "latitude": "42.30282000",
        "longitude": "-85.63362000",
        "is_active": true
    },
    {
        "id": 135017,
        "state_id": 4721,
        "country_id": 237,
        "name": "Wexford County",
        "latitude": "44.33835000",
        "longitude": "-85.57842000",
        "is_active": true
    },
    {
        "id": 135018,
        "state_id": 4721,
        "country_id": 237,
        "name": "White Cloud",
        "latitude": "43.55030000",
        "longitude": "-85.77200000",
        "is_active": true
    },
    {
        "id": 135019,
        "state_id": 4721,
        "country_id": 237,
        "name": "White Pigeon",
        "latitude": "41.79811000",
        "longitude": "-85.64332000",
        "is_active": true
    },
    {
        "id": 135020,
        "state_id": 4721,
        "country_id": 237,
        "name": "Whitehall",
        "latitude": "43.41001000",
        "longitude": "-86.34868000",
        "is_active": true
    },
    {
        "id": 135021,
        "state_id": 4721,
        "country_id": 237,
        "name": "Whitmore Lake",
        "latitude": "42.43970000",
        "longitude": "-83.74530000",
        "is_active": true
    },
    {
        "id": 135022,
        "state_id": 4721,
        "country_id": 237,
        "name": "Williamston",
        "latitude": "42.68892000",
        "longitude": "-84.28302000",
        "is_active": true
    },
    {
        "id": 135023,
        "state_id": 4721,
        "country_id": 237,
        "name": "Wixom",
        "latitude": "42.52476000",
        "longitude": "-83.53633000",
        "is_active": true
    },
    {
        "id": 135024,
        "state_id": 4721,
        "country_id": 237,
        "name": "Wolf Lake",
        "latitude": "43.25474000",
        "longitude": "-86.10978000",
        "is_active": true
    },
    {
        "id": 135025,
        "state_id": 4721,
        "country_id": 237,
        "name": "Wolverine Lake",
        "latitude": "42.55670000",
        "longitude": "-83.47383000",
        "is_active": true
    },
    {
        "id": 135026,
        "state_id": 4721,
        "country_id": 237,
        "name": "Woodhaven",
        "latitude": "42.13893000",
        "longitude": "-83.24160000",
        "is_active": true
    },
    {
        "id": 135027,
        "state_id": 4721,
        "country_id": 237,
        "name": "Woodland Beach",
        "latitude": "41.94005000",
        "longitude": "-83.31326000",
        "is_active": true
    },
    {
        "id": 135028,
        "state_id": 4721,
        "country_id": 237,
        "name": "Wyandotte",
        "latitude": "42.21421000",
        "longitude": "-83.14992000",
        "is_active": true
    },
    {
        "id": 135029,
        "state_id": 4721,
        "country_id": 237,
        "name": "Wyoming",
        "latitude": "42.91336000",
        "longitude": "-85.70531000",
        "is_active": true
    },
    {
        "id": 135030,
        "state_id": 4721,
        "country_id": 237,
        "name": "Yale",
        "latitude": "43.13003000",
        "longitude": "-82.79826000",
        "is_active": true
    },
    {
        "id": 135031,
        "state_id": 4721,
        "country_id": 237,
        "name": "Ypsilanti",
        "latitude": "42.24115000",
        "longitude": "-83.61299000",
        "is_active": true
    },
    {
        "id": 135032,
        "state_id": 4721,
        "country_id": 237,
        "name": "Zeeland",
        "latitude": "42.81252000",
        "longitude": "-86.01865000",
        "is_active": true
    },
    {
        "id": 135033,
        "state_id": 4721,
        "country_id": 237,
        "name": "Zilwaukee",
        "latitude": "43.47641000",
        "longitude": "-83.92053000",
        "is_active": true
    },
    {
        "id": 135034,
        "state_id": 4722,
        "country_id": 237,
        "name": "Ada",
        "latitude": "47.29969000",
        "longitude": "-96.51535000",
        "is_active": true
    },
    {
        "id": 135035,
        "state_id": 4722,
        "country_id": 237,
        "name": "Adrian",
        "latitude": "43.63497000",
        "longitude": "-95.93280000",
        "is_active": true
    },
    {
        "id": 135036,
        "state_id": 4722,
        "country_id": 237,
        "name": "Afton",
        "latitude": "44.90275000",
        "longitude": "-92.78354000",
        "is_active": true
    },
    {
        "id": 135037,
        "state_id": 4722,
        "country_id": 237,
        "name": "Aitkin",
        "latitude": "46.53301000",
        "longitude": "-93.71025000",
        "is_active": true
    },
    {
        "id": 135038,
        "state_id": 4722,
        "country_id": 237,
        "name": "Aitkin County",
        "latitude": "46.60826000",
        "longitude": "-93.41543000",
        "is_active": true
    },
    {
        "id": 135039,
        "state_id": 4722,
        "country_id": 237,
        "name": "Albany",
        "latitude": "45.62996000",
        "longitude": "-94.57000000",
        "is_active": true
    },
    {
        "id": 135040,
        "state_id": 4722,
        "country_id": 237,
        "name": "Albert Lea",
        "latitude": "43.64801000",
        "longitude": "-93.36827000",
        "is_active": true
    },
    {
        "id": 135041,
        "state_id": 4722,
        "country_id": 237,
        "name": "Albertville",
        "latitude": "45.23774000",
        "longitude": "-93.65441000",
        "is_active": true
    },
    {
        "id": 135042,
        "state_id": 4722,
        "country_id": 237,
        "name": "Alexandria",
        "latitude": "45.88524000",
        "longitude": "-95.37754000",
        "is_active": true
    },
    {
        "id": 135043,
        "state_id": 4722,
        "country_id": 237,
        "name": "Andover",
        "latitude": "45.23330000",
        "longitude": "-93.29134000",
        "is_active": true
    },
    {
        "id": 135044,
        "state_id": 4722,
        "country_id": 237,
        "name": "Annandale",
        "latitude": "45.26274000",
        "longitude": "-94.12443000",
        "is_active": true
    },
    {
        "id": 135045,
        "state_id": 4722,
        "country_id": 237,
        "name": "Anoka",
        "latitude": "45.19774000",
        "longitude": "-93.38718000",
        "is_active": true
    },
    {
        "id": 135046,
        "state_id": 4722,
        "country_id": 237,
        "name": "Anoka County",
        "latitude": "45.27324000",
        "longitude": "-93.24645000",
        "is_active": true
    },
    {
        "id": 135047,
        "state_id": 4722,
        "country_id": 237,
        "name": "Apple Valley",
        "latitude": "44.73191000",
        "longitude": "-93.21772000",
        "is_active": true
    },
    {
        "id": 135048,
        "state_id": 4722,
        "country_id": 237,
        "name": "Appleton",
        "latitude": "45.19691000",
        "longitude": "-96.01977000",
        "is_active": true
    },
    {
        "id": 135049,
        "state_id": 4722,
        "country_id": 237,
        "name": "Arden Hills",
        "latitude": "45.05024000",
        "longitude": "-93.15661000",
        "is_active": true
    },
    {
        "id": 135050,
        "state_id": 4722,
        "country_id": 237,
        "name": "Arlington",
        "latitude": "44.60830000",
        "longitude": "-94.08053000",
        "is_active": true
    },
    {
        "id": 135051,
        "state_id": 4722,
        "country_id": 237,
        "name": "Arnold",
        "latitude": "46.88022000",
        "longitude": "-92.09047000",
        "is_active": true
    },
    {
        "id": 135052,
        "state_id": 4722,
        "country_id": 237,
        "name": "Atwater",
        "latitude": "45.13885000",
        "longitude": "-94.77806000",
        "is_active": true
    },
    {
        "id": 135053,
        "state_id": 4722,
        "country_id": 237,
        "name": "Aurora",
        "latitude": "47.52993000",
        "longitude": "-92.23712000",
        "is_active": true
    },
    {
        "id": 135054,
        "state_id": 4722,
        "country_id": 237,
        "name": "Austin",
        "latitude": "43.66663000",
        "longitude": "-92.97464000",
        "is_active": true
    },
    {
        "id": 135055,
        "state_id": 4722,
        "country_id": 237,
        "name": "Avon",
        "latitude": "45.60913000",
        "longitude": "-94.45167000",
        "is_active": true
    },
    {
        "id": 135056,
        "state_id": 4722,
        "country_id": 237,
        "name": "Babbitt",
        "latitude": "47.70853000",
        "longitude": "-91.94460000",
        "is_active": true
    },
    {
        "id": 135057,
        "state_id": 4722,
        "country_id": 237,
        "name": "Bagley",
        "latitude": "47.52162000",
        "longitude": "-95.39835000",
        "is_active": true
    },
    {
        "id": 135058,
        "state_id": 4722,
        "country_id": 237,
        "name": "Barnesville",
        "latitude": "46.65218000",
        "longitude": "-96.41979000",
        "is_active": true
    },
    {
        "id": 135059,
        "state_id": 4722,
        "country_id": 237,
        "name": "Baudette",
        "latitude": "48.71247000",
        "longitude": "-94.59993000",
        "is_active": true
    },
    {
        "id": 135060,
        "state_id": 4722,
        "country_id": 237,
        "name": "Baxter",
        "latitude": "46.34330000",
        "longitude": "-94.28667000",
        "is_active": true
    },
    {
        "id": 135061,
        "state_id": 4722,
        "country_id": 237,
        "name": "Bayport",
        "latitude": "45.02136000",
        "longitude": "-92.78104000",
        "is_active": true
    },
    {
        "id": 135062,
        "state_id": 4722,
        "country_id": 237,
        "name": "Becker",
        "latitude": "45.39330000",
        "longitude": "-93.87692000",
        "is_active": true
    },
    {
        "id": 135063,
        "state_id": 4722,
        "country_id": 237,
        "name": "Becker County",
        "latitude": "46.93465000",
        "longitude": "-95.67392000",
        "is_active": true
    },
    {
        "id": 135064,
        "state_id": 4722,
        "country_id": 237,
        "name": "Belle Plaine",
        "latitude": "44.62274000",
        "longitude": "-93.76857000",
        "is_active": true
    },
    {
        "id": 135065,
        "state_id": 4722,
        "country_id": 237,
        "name": "Beltrami County",
        "latitude": "47.97378000",
        "longitude": "-94.93765000",
        "is_active": true
    },
    {
        "id": 135066,
        "state_id": 4722,
        "country_id": 237,
        "name": "Bemidji",
        "latitude": "47.47356000",
        "longitude": "-94.88028000",
        "is_active": true
    },
    {
        "id": 135067,
        "state_id": 4722,
        "country_id": 237,
        "name": "Benson",
        "latitude": "45.31496000",
        "longitude": "-95.60003000",
        "is_active": true
    },
    {
        "id": 135068,
        "state_id": 4722,
        "country_id": 237,
        "name": "Benton County",
        "latitude": "45.69913000",
        "longitude": "-93.99884000",
        "is_active": true
    },
    {
        "id": 135069,
        "state_id": 4722,
        "country_id": 237,
        "name": "Big Lake",
        "latitude": "45.33246000",
        "longitude": "-93.74608000",
        "is_active": true
    },
    {
        "id": 135070,
        "state_id": 4722,
        "country_id": 237,
        "name": "Big Stone County",
        "latitude": "45.42610000",
        "longitude": "-96.41092000",
        "is_active": true
    },
    {
        "id": 135071,
        "state_id": 4722,
        "country_id": 237,
        "name": "Birchwood",
        "latitude": "45.06108000",
        "longitude": "-92.97605000",
        "is_active": true
    },
    {
        "id": 135072,
        "state_id": 4722,
        "country_id": 237,
        "name": "Blaine",
        "latitude": "45.16080000",
        "longitude": "-93.23495000",
        "is_active": true
    },
    {
        "id": 135073,
        "state_id": 4722,
        "country_id": 237,
        "name": "Blooming Prairie",
        "latitude": "43.86663000",
        "longitude": "-93.05103000",
        "is_active": true
    },
    {
        "id": 135074,
        "state_id": 4722,
        "country_id": 237,
        "name": "Bloomington",
        "latitude": "44.84080000",
        "longitude": "-93.29828000",
        "is_active": true
    },
    {
        "id": 135075,
        "state_id": 4722,
        "country_id": 237,
        "name": "Blue Earth",
        "latitude": "43.63746000",
        "longitude": "-94.10218000",
        "is_active": true
    },
    {
        "id": 135076,
        "state_id": 4722,
        "country_id": 237,
        "name": "Blue Earth County",
        "latitude": "44.03459000",
        "longitude": "-94.06703000",
        "is_active": true
    },
    {
        "id": 135077,
        "state_id": 4722,
        "country_id": 237,
        "name": "Braham",
        "latitude": "45.72274000",
        "longitude": "-93.17078000",
        "is_active": true
    },
    {
        "id": 135078,
        "state_id": 4722,
        "country_id": 237,
        "name": "Brainerd",
        "latitude": "46.35802000",
        "longitude": "-94.20083000",
        "is_active": true
    },
    {
        "id": 135079,
        "state_id": 4722,
        "country_id": 237,
        "name": "Branch",
        "latitude": "45.48524000",
        "longitude": "-92.96188000",
        "is_active": true
    },
    {
        "id": 135080,
        "state_id": 4722,
        "country_id": 237,
        "name": "Breckenridge",
        "latitude": "46.26357000",
        "longitude": "-96.58813000",
        "is_active": true
    },
    {
        "id": 135081,
        "state_id": 4722,
        "country_id": 237,
        "name": "Breezy Point",
        "latitude": "46.59001000",
        "longitude": "-94.21982000",
        "is_active": true
    },
    {
        "id": 135082,
        "state_id": 4722,
        "country_id": 237,
        "name": "Brooklyn Center",
        "latitude": "45.07608000",
        "longitude": "-93.33273000",
        "is_active": true
    },
    {
        "id": 135083,
        "state_id": 4722,
        "country_id": 237,
        "name": "Brooklyn Park",
        "latitude": "45.09413000",
        "longitude": "-93.35634000",
        "is_active": true
    },
    {
        "id": 135084,
        "state_id": 4722,
        "country_id": 237,
        "name": "Brown County",
        "latitude": "44.24217000",
        "longitude": "-94.72748000",
        "is_active": true
    },
    {
        "id": 135085,
        "state_id": 4722,
        "country_id": 237,
        "name": "Buffalo",
        "latitude": "45.17191000",
        "longitude": "-93.87469000",
        "is_active": true
    },
    {
        "id": 135086,
        "state_id": 4722,
        "country_id": 237,
        "name": "Burnsville",
        "latitude": "44.76774000",
        "longitude": "-93.27772000",
        "is_active": true
    },
    {
        "id": 135087,
        "state_id": 4722,
        "country_id": 237,
        "name": "Byron",
        "latitude": "44.03274000",
        "longitude": "-92.64546000",
        "is_active": true
    },
    {
        "id": 135088,
        "state_id": 4722,
        "country_id": 237,
        "name": "Caledonia",
        "latitude": "43.63469000",
        "longitude": "-91.49681000",
        "is_active": true
    },
    {
        "id": 135089,
        "state_id": 4722,
        "country_id": 237,
        "name": "Cambridge",
        "latitude": "45.57274000",
        "longitude": "-93.22439000",
        "is_active": true
    },
    {
        "id": 135090,
        "state_id": 4722,
        "country_id": 237,
        "name": "Canby",
        "latitude": "44.70885000",
        "longitude": "-96.27643000",
        "is_active": true
    },
    {
        "id": 135091,
        "state_id": 4722,
        "country_id": 237,
        "name": "Cannon Falls",
        "latitude": "44.50691000",
        "longitude": "-92.90548000",
        "is_active": true
    },
    {
        "id": 135092,
        "state_id": 4722,
        "country_id": 237,
        "name": "Carlton",
        "latitude": "46.66383000",
        "longitude": "-92.42491000",
        "is_active": true
    },
    {
        "id": 135093,
        "state_id": 4722,
        "country_id": 237,
        "name": "Carlton County",
        "latitude": "46.59240000",
        "longitude": "-92.67705000",
        "is_active": true
    },
    {
        "id": 135094,
        "state_id": 4722,
        "country_id": 237,
        "name": "Carver",
        "latitude": "44.76357000",
        "longitude": "-93.62579000",
        "is_active": true
    },
    {
        "id": 135095,
        "state_id": 4722,
        "country_id": 237,
        "name": "Carver County",
        "latitude": "44.82076000",
        "longitude": "-93.80258000",
        "is_active": true
    },
    {
        "id": 135096,
        "state_id": 4722,
        "country_id": 237,
        "name": "Cass County",
        "latitude": "46.94959000",
        "longitude": "-94.32535000",
        "is_active": true
    },
    {
        "id": 135097,
        "state_id": 4722,
        "country_id": 237,
        "name": "Center City",
        "latitude": "45.39385000",
        "longitude": "-92.81660000",
        "is_active": true
    },
    {
        "id": 135098,
        "state_id": 4722,
        "country_id": 237,
        "name": "Centerville",
        "latitude": "45.16302000",
        "longitude": "-93.05578000",
        "is_active": true
    },
    {
        "id": 135099,
        "state_id": 4722,
        "country_id": 237,
        "name": "Champlin",
        "latitude": "45.18885000",
        "longitude": "-93.39745000",
        "is_active": true
    },
    {
        "id": 135100,
        "state_id": 4722,
        "country_id": 237,
        "name": "Chanhassen",
        "latitude": "44.86219000",
        "longitude": "-93.53079000",
        "is_active": true
    },
    {
        "id": 135101,
        "state_id": 4722,
        "country_id": 237,
        "name": "Chaska",
        "latitude": "44.78941000",
        "longitude": "-93.60218000",
        "is_active": true
    },
    {
        "id": 135102,
        "state_id": 4722,
        "country_id": 237,
        "name": "Chatfield",
        "latitude": "43.84552000",
        "longitude": "-92.18905000",
        "is_active": true
    },
    {
        "id": 135103,
        "state_id": 4722,
        "country_id": 237,
        "name": "Chippewa County",
        "latitude": "45.02234000",
        "longitude": "-95.56669000",
        "is_active": true
    },
    {
        "id": 135104,
        "state_id": 4722,
        "country_id": 237,
        "name": "Chisago City",
        "latitude": "45.37358000",
        "longitude": "-92.88994000",
        "is_active": true
    },
    {
        "id": 135105,
        "state_id": 4722,
        "country_id": 237,
        "name": "Chisago County",
        "latitude": "45.50247000",
        "longitude": "-92.90834000",
        "is_active": true
    },
    {
        "id": 135106,
        "state_id": 4722,
        "country_id": 237,
        "name": "Chisholm",
        "latitude": "47.48910000",
        "longitude": "-92.88380000",
        "is_active": true
    },
    {
        "id": 135107,
        "state_id": 4722,
        "country_id": 237,
        "name": "Circle Pines",
        "latitude": "45.14858000",
        "longitude": "-93.15161000",
        "is_active": true
    },
    {
        "id": 135108,
        "state_id": 4722,
        "country_id": 237,
        "name": "Clara City",
        "latitude": "44.95496000",
        "longitude": "-95.36640000",
        "is_active": true
    },
    {
        "id": 135109,
        "state_id": 4722,
        "country_id": 237,
        "name": "Clay County",
        "latitude": "46.89234000",
        "longitude": "-96.49065000",
        "is_active": true
    },
    {
        "id": 135110,
        "state_id": 4722,
        "country_id": 237,
        "name": "Clearwater",
        "latitude": "45.41941000",
        "longitude": "-94.04887000",
        "is_active": true
    },
    {
        "id": 135111,
        "state_id": 4722,
        "country_id": 237,
        "name": "Clearwater County",
        "latitude": "47.57766000",
        "longitude": "-95.37903000",
        "is_active": true
    },
    {
        "id": 135112,
        "state_id": 4722,
        "country_id": 237,
        "name": "Cloquet",
        "latitude": "46.72161000",
        "longitude": "-92.45936000",
        "is_active": true
    },
    {
        "id": 135113,
        "state_id": 4722,
        "country_id": 237,
        "name": "Cohasset",
        "latitude": "47.26356000",
        "longitude": "-93.62022000",
        "is_active": true
    },
    {
        "id": 135114,
        "state_id": 4722,
        "country_id": 237,
        "name": "Cokato",
        "latitude": "45.07580000",
        "longitude": "-94.18998000",
        "is_active": true
    },
    {
        "id": 135115,
        "state_id": 4722,
        "country_id": 237,
        "name": "Cold Spring",
        "latitude": "45.45580000",
        "longitude": "-94.42888000",
        "is_active": true
    },
    {
        "id": 135116,
        "state_id": 4722,
        "country_id": 237,
        "name": "Coleraine",
        "latitude": "47.28883000",
        "longitude": "-93.42771000",
        "is_active": true
    },
    {
        "id": 135117,
        "state_id": 4722,
        "country_id": 237,
        "name": "Collegeville",
        "latitude": "45.59441000",
        "longitude": "-94.36305000",
        "is_active": true
    },
    {
        "id": 135118,
        "state_id": 4722,
        "country_id": 237,
        "name": "Cologne",
        "latitude": "44.77163000",
        "longitude": "-93.78135000",
        "is_active": true
    },
    {
        "id": 135119,
        "state_id": 4722,
        "country_id": 237,
        "name": "Columbia Heights",
        "latitude": "45.04080000",
        "longitude": "-93.26300000",
        "is_active": true
    },
    {
        "id": 135120,
        "state_id": 4722,
        "country_id": 237,
        "name": "Columbus",
        "latitude": "45.26522000",
        "longitude": "-93.05015000",
        "is_active": true
    },
    {
        "id": 135121,
        "state_id": 4722,
        "country_id": 237,
        "name": "Cook County",
        "latitude": "47.81684000",
        "longitude": "-90.54108000",
        "is_active": true
    },
    {
        "id": 135122,
        "state_id": 4722,
        "country_id": 237,
        "name": "Coon Rapids",
        "latitude": "45.11997000",
        "longitude": "-93.28773000",
        "is_active": true
    },
    {
        "id": 135123,
        "state_id": 4722,
        "country_id": 237,
        "name": "Corcoran",
        "latitude": "45.09524000",
        "longitude": "-93.54746000",
        "is_active": true
    },
    {
        "id": 135124,
        "state_id": 4722,
        "country_id": 237,
        "name": "Cottage Grove",
        "latitude": "44.82774000",
        "longitude": "-92.94382000",
        "is_active": true
    },
    {
        "id": 135125,
        "state_id": 4722,
        "country_id": 237,
        "name": "Cottonwood",
        "latitude": "44.60885000",
        "longitude": "-95.67419000",
        "is_active": true
    },
    {
        "id": 135126,
        "state_id": 4722,
        "country_id": 237,
        "name": "Cottonwood County",
        "latitude": "44.00711000",
        "longitude": "-95.18115000",
        "is_active": true
    },
    {
        "id": 135127,
        "state_id": 4722,
        "country_id": 237,
        "name": "Crookston",
        "latitude": "47.77414000",
        "longitude": "-96.60812000",
        "is_active": true
    },
    {
        "id": 135128,
        "state_id": 4722,
        "country_id": 237,
        "name": "Crosby",
        "latitude": "46.48218000",
        "longitude": "-93.95776000",
        "is_active": true
    },
    {
        "id": 135129,
        "state_id": 4722,
        "country_id": 237,
        "name": "Cross Lake",
        "latitude": "46.65941000",
        "longitude": "-94.11387000",
        "is_active": true
    },
    {
        "id": 135130,
        "state_id": 4722,
        "country_id": 237,
        "name": "Crow Wing County",
        "latitude": "46.48237000",
        "longitude": "-94.07087000",
        "is_active": true
    },
    {
        "id": 135131,
        "state_id": 4722,
        "country_id": 237,
        "name": "Crystal",
        "latitude": "45.03274000",
        "longitude": "-93.36023000",
        "is_active": true
    },
    {
        "id": 135132,
        "state_id": 4722,
        "country_id": 237,
        "name": "Dakota County",
        "latitude": "44.67189000",
        "longitude": "-93.06544000",
        "is_active": true
    },
    {
        "id": 135133,
        "state_id": 4722,
        "country_id": 237,
        "name": "Dassel",
        "latitude": "45.08163000",
        "longitude": "-94.30693000",
        "is_active": true
    },
    {
        "id": 135134,
        "state_id": 4722,
        "country_id": 237,
        "name": "Dawson",
        "latitude": "44.93274000",
        "longitude": "-96.05448000",
        "is_active": true
    },
    {
        "id": 135135,
        "state_id": 4722,
        "country_id": 237,
        "name": "Dayton",
        "latitude": "45.24385000",
        "longitude": "-93.51496000",
        "is_active": true
    },
    {
        "id": 135136,
        "state_id": 4722,
        "country_id": 237,
        "name": "Deephaven",
        "latitude": "44.92969000",
        "longitude": "-93.52246000",
        "is_active": true
    },
    {
        "id": 135137,
        "state_id": 4722,
        "country_id": 237,
        "name": "Delano",
        "latitude": "45.04191000",
        "longitude": "-93.78913000",
        "is_active": true
    },
    {
        "id": 135138,
        "state_id": 4722,
        "country_id": 237,
        "name": "Dellwood",
        "latitude": "45.08997000",
        "longitude": "-92.97244000",
        "is_active": true
    },
    {
        "id": 135139,
        "state_id": 4722,
        "country_id": 237,
        "name": "Detroit Lakes",
        "latitude": "46.81718000",
        "longitude": "-95.84533000",
        "is_active": true
    },
    {
        "id": 135140,
        "state_id": 4722,
        "country_id": 237,
        "name": "Dilworth",
        "latitude": "46.87663000",
        "longitude": "-96.70341000",
        "is_active": true
    },
    {
        "id": 135141,
        "state_id": 4722,
        "country_id": 237,
        "name": "Dodge Center",
        "latitude": "44.02802000",
        "longitude": "-92.85464000",
        "is_active": true
    },
    {
        "id": 135142,
        "state_id": 4722,
        "country_id": 237,
        "name": "Dodge County",
        "latitude": "44.02259000",
        "longitude": "-92.86205000",
        "is_active": true
    },
    {
        "id": 135143,
        "state_id": 4722,
        "country_id": 237,
        "name": "Douglas County",
        "latitude": "45.93372000",
        "longitude": "-95.45352000",
        "is_active": true
    },
    {
        "id": 135144,
        "state_id": 4722,
        "country_id": 237,
        "name": "Duluth",
        "latitude": "46.78327000",
        "longitude": "-92.10658000",
        "is_active": true
    },
    {
        "id": 135145,
        "state_id": 4722,
        "country_id": 237,
        "name": "Dundas",
        "latitude": "44.42941000",
        "longitude": "-93.20188000",
        "is_active": true
    },
    {
        "id": 135146,
        "state_id": 4722,
        "country_id": 237,
        "name": "Eagan",
        "latitude": "44.80413000",
        "longitude": "-93.16689000",
        "is_active": true
    },
    {
        "id": 135147,
        "state_id": 4722,
        "country_id": 237,
        "name": "Eagle Lake",
        "latitude": "44.16497000",
        "longitude": "-93.88134000",
        "is_active": true
    },
    {
        "id": 135148,
        "state_id": 4722,
        "country_id": 237,
        "name": "East Bethel",
        "latitude": "45.31941000",
        "longitude": "-93.20245000",
        "is_active": true
    },
    {
        "id": 135149,
        "state_id": 4722,
        "country_id": 237,
        "name": "East Grand Forks",
        "latitude": "47.92998000",
        "longitude": "-97.02452000",
        "is_active": true
    },
    {
        "id": 135150,
        "state_id": 4722,
        "country_id": 237,
        "name": "East Gull Lake",
        "latitude": "46.40802000",
        "longitude": "-94.35584000",
        "is_active": true
    },
    {
        "id": 135151,
        "state_id": 4722,
        "country_id": 237,
        "name": "Eden Prairie",
        "latitude": "44.85469000",
        "longitude": "-93.47079000",
        "is_active": true
    },
    {
        "id": 135152,
        "state_id": 4722,
        "country_id": 237,
        "name": "Eden Valley",
        "latitude": "45.32607000",
        "longitude": "-94.54611000",
        "is_active": true
    },
    {
        "id": 135153,
        "state_id": 4722,
        "country_id": 237,
        "name": "Edgerton",
        "latitude": "43.87247000",
        "longitude": "-96.12864000",
        "is_active": true
    },
    {
        "id": 135154,
        "state_id": 4722,
        "country_id": 237,
        "name": "Edina",
        "latitude": "44.88969000",
        "longitude": "-93.34995000",
        "is_active": true
    },
    {
        "id": 135155,
        "state_id": 4722,
        "country_id": 237,
        "name": "Elbow Lake",
        "latitude": "45.99413000",
        "longitude": "-95.97672000",
        "is_active": true
    },
    {
        "id": 135156,
        "state_id": 4722,
        "country_id": 237,
        "name": "Elgin",
        "latitude": "44.13024000",
        "longitude": "-92.25156000",
        "is_active": true
    },
    {
        "id": 135157,
        "state_id": 4722,
        "country_id": 237,
        "name": "Elk River",
        "latitude": "45.30385000",
        "longitude": "-93.56718000",
        "is_active": true
    },
    {
        "id": 135158,
        "state_id": 4722,
        "country_id": 237,
        "name": "Elko New Market",
        "latitude": "44.56472000",
        "longitude": "-93.32694000",
        "is_active": true
    },
    {
        "id": 135159,
        "state_id": 4722,
        "country_id": 237,
        "name": "Ely",
        "latitude": "47.90324000",
        "longitude": "-91.86709000",
        "is_active": true
    },
    {
        "id": 135160,
        "state_id": 4722,
        "country_id": 237,
        "name": "Esko",
        "latitude": "46.70578000",
        "longitude": "-92.36325000",
        "is_active": true
    },
    {
        "id": 135161,
        "state_id": 4722,
        "country_id": 237,
        "name": "Eveleth",
        "latitude": "47.46243000",
        "longitude": "-92.53991000",
        "is_active": true
    },
    {
        "id": 135162,
        "state_id": 4722,
        "country_id": 237,
        "name": "Excelsior",
        "latitude": "44.90330000",
        "longitude": "-93.56635000",
        "is_active": true
    },
    {
        "id": 135163,
        "state_id": 4722,
        "country_id": 237,
        "name": "Eyota",
        "latitude": "43.98830000",
        "longitude": "-92.22850000",
        "is_active": true
    },
    {
        "id": 135164,
        "state_id": 4722,
        "country_id": 237,
        "name": "Fairfax",
        "latitude": "44.52913000",
        "longitude": "-94.72082000",
        "is_active": true
    },
    {
        "id": 135165,
        "state_id": 4722,
        "country_id": 237,
        "name": "Fairmont",
        "latitude": "43.65218000",
        "longitude": "-94.46108000",
        "is_active": true
    },
    {
        "id": 135166,
        "state_id": 4722,
        "country_id": 237,
        "name": "Falcon Heights",
        "latitude": "44.99163000",
        "longitude": "-93.16633000",
        "is_active": true
    },
    {
        "id": 135167,
        "state_id": 4722,
        "country_id": 237,
        "name": "Faribault",
        "latitude": "44.29496000",
        "longitude": "-93.26883000",
        "is_active": true
    },
    {
        "id": 135168,
        "state_id": 4722,
        "country_id": 237,
        "name": "Faribault County",
        "latitude": "43.67393000",
        "longitude": "-93.94800000",
        "is_active": true
    },
    {
        "id": 135169,
        "state_id": 4722,
        "country_id": 237,
        "name": "Farmington",
        "latitude": "44.64024000",
        "longitude": "-93.14355000",
        "is_active": true
    },
    {
        "id": 135170,
        "state_id": 4722,
        "country_id": 237,
        "name": "Fergus Falls",
        "latitude": "46.28302000",
        "longitude": "-96.07756000",
        "is_active": true
    },
    {
        "id": 135171,
        "state_id": 4722,
        "country_id": 237,
        "name": "Fillmore County",
        "latitude": "43.67400000",
        "longitude": "-92.09017000",
        "is_active": true
    },
    {
        "id": 135172,
        "state_id": 4722,
        "country_id": 237,
        "name": "Foley",
        "latitude": "45.66469000",
        "longitude": "-93.90970000",
        "is_active": true
    },
    {
        "id": 135173,
        "state_id": 4722,
        "country_id": 237,
        "name": "Forest Lake",
        "latitude": "45.27886000",
        "longitude": "-92.98522000",
        "is_active": true
    },
    {
        "id": 135174,
        "state_id": 4722,
        "country_id": 237,
        "name": "Fosston",
        "latitude": "47.57635000",
        "longitude": "-95.75141000",
        "is_active": true
    },
    {
        "id": 135175,
        "state_id": 4722,
        "country_id": 237,
        "name": "Frazee",
        "latitude": "46.72801000",
        "longitude": "-95.70088000",
        "is_active": true
    },
    {
        "id": 135176,
        "state_id": 4722,
        "country_id": 237,
        "name": "Freeborn County",
        "latitude": "43.67384000",
        "longitude": "-93.34882000",
        "is_active": true
    },
    {
        "id": 135177,
        "state_id": 4722,
        "country_id": 237,
        "name": "Fridley",
        "latitude": "45.08608000",
        "longitude": "-93.26328000",
        "is_active": true
    },
    {
        "id": 135178,
        "state_id": 4722,
        "country_id": 237,
        "name": "Fulda",
        "latitude": "43.87052000",
        "longitude": "-95.60029000",
        "is_active": true
    },
    {
        "id": 135179,
        "state_id": 4722,
        "country_id": 237,
        "name": "Gaylord",
        "latitude": "44.55302000",
        "longitude": "-94.22053000",
        "is_active": true
    },
    {
        "id": 135180,
        "state_id": 4722,
        "country_id": 237,
        "name": "Gilbert",
        "latitude": "47.48882000",
        "longitude": "-92.46491000",
        "is_active": true
    },
    {
        "id": 135181,
        "state_id": 4722,
        "country_id": 237,
        "name": "Glencoe",
        "latitude": "44.76913000",
        "longitude": "-94.15164000",
        "is_active": true
    },
    {
        "id": 135182,
        "state_id": 4722,
        "country_id": 237,
        "name": "Glenwood",
        "latitude": "45.65024000",
        "longitude": "-95.38976000",
        "is_active": true
    },
    {
        "id": 135183,
        "state_id": 4722,
        "country_id": 237,
        "name": "Glyndon",
        "latitude": "46.87524000",
        "longitude": "-96.57896000",
        "is_active": true
    },
    {
        "id": 135184,
        "state_id": 4722,
        "country_id": 237,
        "name": "Golden Valley",
        "latitude": "45.00969000",
        "longitude": "-93.34912000",
        "is_active": true
    },
    {
        "id": 135185,
        "state_id": 4722,
        "country_id": 237,
        "name": "Goodhue",
        "latitude": "44.40052000",
        "longitude": "-92.62380000",
        "is_active": true
    },
    {
        "id": 135186,
        "state_id": 4722,
        "country_id": 237,
        "name": "Goodhue County",
        "latitude": "44.40985000",
        "longitude": "-92.72259000",
        "is_active": true
    },
    {
        "id": 135187,
        "state_id": 4722,
        "country_id": 237,
        "name": "Goodview",
        "latitude": "44.06246000",
        "longitude": "-91.69571000",
        "is_active": true
    },
    {
        "id": 135188,
        "state_id": 4722,
        "country_id": 237,
        "name": "Grand Marais",
        "latitude": "47.75045000",
        "longitude": "-90.33427000",
        "is_active": true
    },
    {
        "id": 135189,
        "state_id": 4722,
        "country_id": 237,
        "name": "Grand Meadow",
        "latitude": "43.70580000",
        "longitude": "-92.57212000",
        "is_active": true
    },
    {
        "id": 135190,
        "state_id": 4722,
        "country_id": 237,
        "name": "Grand Rapids",
        "latitude": "47.23717000",
        "longitude": "-93.53021000",
        "is_active": true
    },
    {
        "id": 135191,
        "state_id": 4722,
        "country_id": 237,
        "name": "Granite Falls",
        "latitude": "44.80996000",
        "longitude": "-95.54558000",
        "is_active": true
    },
    {
        "id": 135192,
        "state_id": 4722,
        "country_id": 237,
        "name": "Grant",
        "latitude": "45.08441000",
        "longitude": "-92.91049000",
        "is_active": true
    },
    {
        "id": 135193,
        "state_id": 4722,
        "country_id": 237,
        "name": "Grant County",
        "latitude": "45.93405000",
        "longitude": "-96.01218000",
        "is_active": true
    },
    {
        "id": 135194,
        "state_id": 4722,
        "country_id": 237,
        "name": "Greenfield",
        "latitude": "45.10330000",
        "longitude": "-93.69135000",
        "is_active": true
    },
    {
        "id": 135195,
        "state_id": 4722,
        "country_id": 237,
        "name": "Hallock",
        "latitude": "48.77443000",
        "longitude": "-96.94645000",
        "is_active": true
    },
    {
        "id": 135196,
        "state_id": 4722,
        "country_id": 237,
        "name": "Ham Lake",
        "latitude": "45.25024000",
        "longitude": "-93.24995000",
        "is_active": true
    },
    {
        "id": 135197,
        "state_id": 4722,
        "country_id": 237,
        "name": "Hanover",
        "latitude": "45.15580000",
        "longitude": "-93.66635000",
        "is_active": true
    },
    {
        "id": 135198,
        "state_id": 4722,
        "country_id": 237,
        "name": "Harris",
        "latitude": "45.58635000",
        "longitude": "-92.97466000",
        "is_active": true
    },
    {
        "id": 135199,
        "state_id": 4722,
        "country_id": 237,
        "name": "Hastings",
        "latitude": "44.74330000",
        "longitude": "-92.85243000",
        "is_active": true
    },
    {
        "id": 135200,
        "state_id": 4722,
        "country_id": 237,
        "name": "Hawley",
        "latitude": "46.88079000",
        "longitude": "-96.31673000",
        "is_active": true
    },
    {
        "id": 135201,
        "state_id": 4722,
        "country_id": 237,
        "name": "Hayfield",
        "latitude": "43.89052000",
        "longitude": "-92.84769000",
        "is_active": true
    },
    {
        "id": 135202,
        "state_id": 4722,
        "country_id": 237,
        "name": "Hector",
        "latitude": "44.74385000",
        "longitude": "-94.71555000",
        "is_active": true
    },
    {
        "id": 135203,
        "state_id": 4722,
        "country_id": 237,
        "name": "Hennepin County",
        "latitude": "45.00458000",
        "longitude": "-93.47688000",
        "is_active": true
    },
    {
        "id": 135204,
        "state_id": 4722,
        "country_id": 237,
        "name": "Hermantown",
        "latitude": "46.80689000",
        "longitude": "-92.23825000",
        "is_active": true
    },
    {
        "id": 135205,
        "state_id": 4722,
        "country_id": 237,
        "name": "Hibbing",
        "latitude": "47.42715000",
        "longitude": "-92.93769000",
        "is_active": true
    },
    {
        "id": 135206,
        "state_id": 4722,
        "country_id": 237,
        "name": "Hinckley",
        "latitude": "46.01134000",
        "longitude": "-92.94437000",
        "is_active": true
    },
    {
        "id": 135207,
        "state_id": 4722,
        "country_id": 237,
        "name": "Hopkins",
        "latitude": "44.92496000",
        "longitude": "-93.46273000",
        "is_active": true
    },
    {
        "id": 135208,
        "state_id": 4722,
        "country_id": 237,
        "name": "Houston County",
        "latitude": "43.67144000",
        "longitude": "-91.49283000",
        "is_active": true
    },
    {
        "id": 135209,
        "state_id": 4722,
        "country_id": 237,
        "name": "Howard Lake",
        "latitude": "45.06080000",
        "longitude": "-94.07331000",
        "is_active": true
    },
    {
        "id": 135210,
        "state_id": 4722,
        "country_id": 237,
        "name": "Hoyt Lakes",
        "latitude": "47.51965000",
        "longitude": "-92.13851000",
        "is_active": true
    },
    {
        "id": 135211,
        "state_id": 4722,
        "country_id": 237,
        "name": "Hubbard County",
        "latitude": "47.10865000",
        "longitude": "-94.91664000",
        "is_active": true
    },
    {
        "id": 135212,
        "state_id": 4722,
        "country_id": 237,
        "name": "Hugo",
        "latitude": "45.15997000",
        "longitude": "-92.99327000",
        "is_active": true
    },
    {
        "id": 135213,
        "state_id": 4722,
        "country_id": 237,
        "name": "Hutchinson",
        "latitude": "44.88774000",
        "longitude": "-94.36971000",
        "is_active": true
    },
    {
        "id": 135214,
        "state_id": 4722,
        "country_id": 237,
        "name": "Independence",
        "latitude": "45.02524000",
        "longitude": "-93.70746000",
        "is_active": true
    },
    {
        "id": 135215,
        "state_id": 4722,
        "country_id": 237,
        "name": "International Falls",
        "latitude": "48.60105000",
        "longitude": "-93.41098000",
        "is_active": true
    },
    {
        "id": 135216,
        "state_id": 4722,
        "country_id": 237,
        "name": "Inver Grove Heights",
        "latitude": "44.84802000",
        "longitude": "-93.04272000",
        "is_active": true
    },
    {
        "id": 135217,
        "state_id": 4722,
        "country_id": 237,
        "name": "Isanti",
        "latitude": "45.49024000",
        "longitude": "-93.24773000",
        "is_active": true
    },
    {
        "id": 135218,
        "state_id": 4722,
        "country_id": 237,
        "name": "Isanti County",
        "latitude": "45.56149000",
        "longitude": "-93.29518000",
        "is_active": true
    },
    {
        "id": 135219,
        "state_id": 4722,
        "country_id": 237,
        "name": "Itasca County",
        "latitude": "47.50953000",
        "longitude": "-93.63200000",
        "is_active": true
    },
    {
        "id": 135220,
        "state_id": 4722,
        "country_id": 237,
        "name": "Ivanhoe",
        "latitude": "44.46330000",
        "longitude": "-96.24726000",
        "is_active": true
    },
    {
        "id": 135221,
        "state_id": 4722,
        "country_id": 237,
        "name": "Jackson",
        "latitude": "43.62079000",
        "longitude": "-94.98860000",
        "is_active": true
    },
    {
        "id": 135222,
        "state_id": 4722,
        "country_id": 237,
        "name": "Jackson County",
        "latitude": "43.67417000",
        "longitude": "-95.15411000",
        "is_active": true
    },
    {
        "id": 135223,
        "state_id": 4722,
        "country_id": 237,
        "name": "Janesville",
        "latitude": "44.11608000",
        "longitude": "-93.70800000",
        "is_active": true
    },
    {
        "id": 135224,
        "state_id": 4722,
        "country_id": 237,
        "name": "Jordan",
        "latitude": "44.66691000",
        "longitude": "-93.62690000",
        "is_active": true
    },
    {
        "id": 135225,
        "state_id": 4722,
        "country_id": 237,
        "name": "Kanabec County",
        "latitude": "45.94522000",
        "longitude": "-93.29343000",
        "is_active": true
    },
    {
        "id": 135226,
        "state_id": 4722,
        "country_id": 237,
        "name": "Kandiyohi County",
        "latitude": "45.15238000",
        "longitude": "-95.00474000",
        "is_active": true
    },
    {
        "id": 135227,
        "state_id": 4722,
        "country_id": 237,
        "name": "Kasson",
        "latitude": "44.02996000",
        "longitude": "-92.75074000",
        "is_active": true
    },
    {
        "id": 135228,
        "state_id": 4722,
        "country_id": 237,
        "name": "Keewatin",
        "latitude": "47.39966000",
        "longitude": "-93.07242000",
        "is_active": true
    },
    {
        "id": 135229,
        "state_id": 4722,
        "country_id": 237,
        "name": "Kenyon",
        "latitude": "44.27219000",
        "longitude": "-92.98548000",
        "is_active": true
    },
    {
        "id": 135230,
        "state_id": 4722,
        "country_id": 237,
        "name": "Kittson County",
        "latitude": "48.77663000",
        "longitude": "-96.78285000",
        "is_active": true
    },
    {
        "id": 135231,
        "state_id": 4722,
        "country_id": 237,
        "name": "Koochiching County",
        "latitude": "48.24527000",
        "longitude": "-93.78337000",
        "is_active": true
    },
    {
        "id": 135232,
        "state_id": 4722,
        "country_id": 237,
        "name": "La Crescent",
        "latitude": "43.82802000",
        "longitude": "-91.30403000",
        "is_active": true
    },
    {
        "id": 135233,
        "state_id": 4722,
        "country_id": 237,
        "name": "Lac qui Parle County",
        "latitude": "44.99549000",
        "longitude": "-96.17348000",
        "is_active": true
    },
    {
        "id": 135234,
        "state_id": 4722,
        "country_id": 237,
        "name": "Lake City",
        "latitude": "44.44968000",
        "longitude": "-92.26820000",
        "is_active": true
    },
    {
        "id": 135235,
        "state_id": 4722,
        "country_id": 237,
        "name": "Lake County",
        "latitude": "47.52317000",
        "longitude": "-91.40885000",
        "is_active": true
    },
    {
        "id": 135236,
        "state_id": 4722,
        "country_id": 237,
        "name": "Lake Crystal",
        "latitude": "44.10580000",
        "longitude": "-94.21885000",
        "is_active": true
    },
    {
        "id": 135237,
        "state_id": 4722,
        "country_id": 237,
        "name": "Lake Elmo",
        "latitude": "44.99580000",
        "longitude": "-92.87938000",
        "is_active": true
    },
    {
        "id": 135238,
        "state_id": 4722,
        "country_id": 237,
        "name": "Lake Saint Croix Beach",
        "latitude": "44.92080000",
        "longitude": "-92.76687000",
        "is_active": true
    },
    {
        "id": 135239,
        "state_id": 4722,
        "country_id": 237,
        "name": "Lake Shore",
        "latitude": "46.48552000",
        "longitude": "-94.36056000",
        "is_active": true
    },
    {
        "id": 135240,
        "state_id": 4722,
        "country_id": 237,
        "name": "Lake of the Woods County",
        "latitude": "48.77051000",
        "longitude": "-94.90503000",
        "is_active": true
    },
    {
        "id": 135241,
        "state_id": 4722,
        "country_id": 237,
        "name": "Lakefield",
        "latitude": "43.67746000",
        "longitude": "-95.17166000",
        "is_active": true
    },
    {
        "id": 135242,
        "state_id": 4722,
        "country_id": 237,
        "name": "Lakeland",
        "latitude": "44.95636000",
        "longitude": "-92.76576000",
        "is_active": true
    },
    {
        "id": 135243,
        "state_id": 4722,
        "country_id": 237,
        "name": "Lakeville",
        "latitude": "44.64969000",
        "longitude": "-93.24272000",
        "is_active": true
    },
    {
        "id": 135244,
        "state_id": 4722,
        "country_id": 237,
        "name": "Lauderdale",
        "latitude": "44.99858000",
        "longitude": "-93.20578000",
        "is_active": true
    },
    {
        "id": 135245,
        "state_id": 4722,
        "country_id": 237,
        "name": "Le Center",
        "latitude": "44.38941000",
        "longitude": "-93.73023000",
        "is_active": true
    },
    {
        "id": 135246,
        "state_id": 4722,
        "country_id": 237,
        "name": "Le Sueur",
        "latitude": "44.46135000",
        "longitude": "-93.91524000",
        "is_active": true
    },
    {
        "id": 135247,
        "state_id": 4722,
        "country_id": 237,
        "name": "Le Sueur County",
        "latitude": "44.37143000",
        "longitude": "-93.73008000",
        "is_active": true
    },
    {
        "id": 135248,
        "state_id": 4722,
        "country_id": 237,
        "name": "Lester Prairie",
        "latitude": "44.88385000",
        "longitude": "-94.04164000",
        "is_active": true
    },
    {
        "id": 135249,
        "state_id": 4722,
        "country_id": 237,
        "name": "Lewiston",
        "latitude": "43.98441000",
        "longitude": "-91.86932000",
        "is_active": true
    },
    {
        "id": 135250,
        "state_id": 4722,
        "country_id": 237,
        "name": "Lexington",
        "latitude": "45.14247000",
        "longitude": "-93.16328000",
        "is_active": true
    },
    {
        "id": 135251,
        "state_id": 4722,
        "country_id": 237,
        "name": "Lincoln County",
        "latitude": "44.41260000",
        "longitude": "-96.26709000",
        "is_active": true
    },
    {
        "id": 135252,
        "state_id": 4722,
        "country_id": 237,
        "name": "Lindstrom",
        "latitude": "45.38941000",
        "longitude": "-92.84799000",
        "is_active": true
    },
    {
        "id": 135253,
        "state_id": 4722,
        "country_id": 237,
        "name": "Lino Lakes",
        "latitude": "45.16024000",
        "longitude": "-93.08883000",
        "is_active": true
    },
    {
        "id": 135254,
        "state_id": 4722,
        "country_id": 237,
        "name": "Litchfield",
        "latitude": "45.12718000",
        "longitude": "-94.52805000",
        "is_active": true
    },
    {
        "id": 135255,
        "state_id": 4722,
        "country_id": 237,
        "name": "Little Canada",
        "latitude": "45.02691000",
        "longitude": "-93.08772000",
        "is_active": true
    },
    {
        "id": 135256,
        "state_id": 4722,
        "country_id": 237,
        "name": "Little Falls",
        "latitude": "45.97635000",
        "longitude": "-94.36250000",
        "is_active": true
    },
    {
        "id": 135257,
        "state_id": 4722,
        "country_id": 237,
        "name": "Little Rock",
        "latitude": "47.86801000",
        "longitude": "-95.11055000",
        "is_active": true
    },
    {
        "id": 135258,
        "state_id": 4722,
        "country_id": 237,
        "name": "Long Lake",
        "latitude": "44.98663000",
        "longitude": "-93.57162000",
        "is_active": true
    },
    {
        "id": 135259,
        "state_id": 4722,
        "country_id": 237,
        "name": "Long Prairie",
        "latitude": "45.97469000",
        "longitude": "-94.86558000",
        "is_active": true
    },
    {
        "id": 135260,
        "state_id": 4722,
        "country_id": 237,
        "name": "Lonsdale",
        "latitude": "44.48024000",
        "longitude": "-93.42856000",
        "is_active": true
    },
    {
        "id": 135261,
        "state_id": 4722,
        "country_id": 237,
        "name": "Luverne",
        "latitude": "43.65414000",
        "longitude": "-96.21281000",
        "is_active": true
    },
    {
        "id": 135262,
        "state_id": 4722,
        "country_id": 237,
        "name": "Lyon County",
        "latitude": "44.41349000",
        "longitude": "-95.83897000",
        "is_active": true
    },
    {
        "id": 135263,
        "state_id": 4722,
        "country_id": 237,
        "name": "Madelia",
        "latitude": "44.05079000",
        "longitude": "-94.41830000",
        "is_active": true
    },
    {
        "id": 135264,
        "state_id": 4722,
        "country_id": 237,
        "name": "Madison",
        "latitude": "45.00968000",
        "longitude": "-96.19588000",
        "is_active": true
    },
    {
        "id": 135265,
        "state_id": 4722,
        "country_id": 237,
        "name": "Madison Lake",
        "latitude": "44.20441000",
        "longitude": "-93.81551000",
        "is_active": true
    },
    {
        "id": 135266,
        "state_id": 4722,
        "country_id": 237,
        "name": "Mahnomen",
        "latitude": "47.31524000",
        "longitude": "-95.96865000",
        "is_active": true
    },
    {
        "id": 135267,
        "state_id": 4722,
        "country_id": 237,
        "name": "Mahnomen County",
        "latitude": "47.32524000",
        "longitude": "-95.80905000",
        "is_active": true
    },
    {
        "id": 135268,
        "state_id": 4722,
        "country_id": 237,
        "name": "Mahtomedi",
        "latitude": "45.06969000",
        "longitude": "-92.95160000",
        "is_active": true
    },
    {
        "id": 135269,
        "state_id": 4722,
        "country_id": 237,
        "name": "Mankato",
        "latitude": "44.15906000",
        "longitude": "-94.00915000",
        "is_active": true
    },
    {
        "id": 135270,
        "state_id": 4722,
        "country_id": 237,
        "name": "Mantorville",
        "latitude": "44.06913000",
        "longitude": "-92.75575000",
        "is_active": true
    },
    {
        "id": 135271,
        "state_id": 4722,
        "country_id": 237,
        "name": "Maple Grove",
        "latitude": "45.07246000",
        "longitude": "-93.45579000",
        "is_active": true
    },
    {
        "id": 135272,
        "state_id": 4722,
        "country_id": 237,
        "name": "Maple Lake",
        "latitude": "45.22913000",
        "longitude": "-94.00192000",
        "is_active": true
    },
    {
        "id": 135273,
        "state_id": 4722,
        "country_id": 237,
        "name": "Maple Plain",
        "latitude": "45.00719000",
        "longitude": "-93.65579000",
        "is_active": true
    },
    {
        "id": 135274,
        "state_id": 4722,
        "country_id": 237,
        "name": "Mapleton",
        "latitude": "43.92885000",
        "longitude": "-93.95606000",
        "is_active": true
    },
    {
        "id": 135275,
        "state_id": 4722,
        "country_id": 237,
        "name": "Maplewood",
        "latitude": "44.95302000",
        "longitude": "-92.99522000",
        "is_active": true
    },
    {
        "id": 135276,
        "state_id": 4722,
        "country_id": 237,
        "name": "Marshall",
        "latitude": "44.44690000",
        "longitude": "-95.78835000",
        "is_active": true
    },
    {
        "id": 135277,
        "state_id": 4722,
        "country_id": 237,
        "name": "Marshall County",
        "latitude": "48.35813000",
        "longitude": "-96.36847000",
        "is_active": true
    },
    {
        "id": 135278,
        "state_id": 4722,
        "country_id": 237,
        "name": "Martin County",
        "latitude": "43.67436000",
        "longitude": "-94.55107000",
        "is_active": true
    },
    {
        "id": 135279,
        "state_id": 4722,
        "country_id": 237,
        "name": "Mayer",
        "latitude": "44.88496000",
        "longitude": "-93.88775000",
        "is_active": true
    },
    {
        "id": 135280,
        "state_id": 4722,
        "country_id": 237,
        "name": "McLeod County",
        "latitude": "44.82354000",
        "longitude": "-94.27242000",
        "is_active": true
    },
    {
        "id": 135281,
        "state_id": 4722,
        "country_id": 237,
        "name": "Medford",
        "latitude": "44.17413000",
        "longitude": "-93.24632000",
        "is_active": true
    },
    {
        "id": 135282,
        "state_id": 4722,
        "country_id": 237,
        "name": "Medina",
        "latitude": "45.03524000",
        "longitude": "-93.58246000",
        "is_active": true
    },
    {
        "id": 135283,
        "state_id": 4722,
        "country_id": 237,
        "name": "Meeker County",
        "latitude": "45.12312000",
        "longitude": "-94.52731000",
        "is_active": true
    },
    {
        "id": 135284,
        "state_id": 4722,
        "country_id": 237,
        "name": "Melrose",
        "latitude": "45.67469000",
        "longitude": "-94.80752000",
        "is_active": true
    },
    {
        "id": 135285,
        "state_id": 4722,
        "country_id": 237,
        "name": "Menahga",
        "latitude": "46.75385000",
        "longitude": "-95.09808000",
        "is_active": true
    },
    {
        "id": 135286,
        "state_id": 4722,
        "country_id": 237,
        "name": "Mendota Heights",
        "latitude": "44.88358000",
        "longitude": "-93.13827000",
        "is_active": true
    },
    {
        "id": 135287,
        "state_id": 4722,
        "country_id": 237,
        "name": "Milaca",
        "latitude": "45.75580000",
        "longitude": "-93.65441000",
        "is_active": true
    },
    {
        "id": 135288,
        "state_id": 4722,
        "country_id": 237,
        "name": "Mille Lacs County",
        "latitude": "45.93805000",
        "longitude": "-93.63009000",
        "is_active": true
    },
    {
        "id": 135289,
        "state_id": 4722,
        "country_id": 237,
        "name": "Minneapolis",
        "latitude": "44.97997000",
        "longitude": "-93.26384000",
        "is_active": true
    },
    {
        "id": 135290,
        "state_id": 4722,
        "country_id": 237,
        "name": "Minneota",
        "latitude": "44.55885000",
        "longitude": "-95.98559000",
        "is_active": true
    },
    {
        "id": 135291,
        "state_id": 4722,
        "country_id": 237,
        "name": "Minnetonka",
        "latitude": "44.91330000",
        "longitude": "-93.50329000",
        "is_active": true
    },
    {
        "id": 135292,
        "state_id": 4722,
        "country_id": 237,
        "name": "Minnetonka Mills",
        "latitude": "44.94107000",
        "longitude": "-93.44190000",
        "is_active": true
    },
    {
        "id": 135293,
        "state_id": 4722,
        "country_id": 237,
        "name": "Minnetrista",
        "latitude": "44.93830000",
        "longitude": "-93.71774000",
        "is_active": true
    },
    {
        "id": 135294,
        "state_id": 4722,
        "country_id": 237,
        "name": "Montevideo",
        "latitude": "44.94803000",
        "longitude": "-95.71701000",
        "is_active": true
    },
    {
        "id": 135295,
        "state_id": 4722,
        "country_id": 237,
        "name": "Montgomery",
        "latitude": "44.43885000",
        "longitude": "-93.58134000",
        "is_active": true
    },
    {
        "id": 135296,
        "state_id": 4722,
        "country_id": 237,
        "name": "Monticello",
        "latitude": "45.30552000",
        "longitude": "-93.79414000",
        "is_active": true
    },
    {
        "id": 135297,
        "state_id": 4722,
        "country_id": 237,
        "name": "Montrose",
        "latitude": "45.06496000",
        "longitude": "-93.91108000",
        "is_active": true
    },
    {
        "id": 135298,
        "state_id": 4722,
        "country_id": 237,
        "name": "Moorhead",
        "latitude": "46.87386000",
        "longitude": "-96.76951000",
        "is_active": true
    },
    {
        "id": 135299,
        "state_id": 4722,
        "country_id": 237,
        "name": "Moose Lake",
        "latitude": "46.45411000",
        "longitude": "-92.76187000",
        "is_active": true
    },
    {
        "id": 135300,
        "state_id": 4722,
        "country_id": 237,
        "name": "Mora",
        "latitude": "45.87690000",
        "longitude": "-93.29384000",
        "is_active": true
    },
    {
        "id": 135301,
        "state_id": 4722,
        "country_id": 237,
        "name": "Morris",
        "latitude": "45.58607000",
        "longitude": "-95.91394000",
        "is_active": true
    },
    {
        "id": 135302,
        "state_id": 4722,
        "country_id": 237,
        "name": "Morrison County",
        "latitude": "46.01262000",
        "longitude": "-94.26842000",
        "is_active": true
    },
    {
        "id": 135303,
        "state_id": 4722,
        "country_id": 237,
        "name": "Mound",
        "latitude": "44.93663000",
        "longitude": "-93.66607000",
        "is_active": true
    },
    {
        "id": 135304,
        "state_id": 4722,
        "country_id": 237,
        "name": "Mounds View",
        "latitude": "45.10497000",
        "longitude": "-93.20856000",
        "is_active": true
    },
    {
        "id": 135305,
        "state_id": 4722,
        "country_id": 237,
        "name": "Mountain Iron",
        "latitude": "47.53243000",
        "longitude": "-92.62351000",
        "is_active": true
    },
    {
        "id": 135306,
        "state_id": 4722,
        "country_id": 237,
        "name": "Mountain Lake",
        "latitude": "43.93885000",
        "longitude": "-94.92971000",
        "is_active": true
    },
    {
        "id": 135307,
        "state_id": 4722,
        "country_id": 237,
        "name": "Mower County",
        "latitude": "43.67147000",
        "longitude": "-92.75251000",
        "is_active": true
    },
    {
        "id": 135308,
        "state_id": 4722,
        "country_id": 237,
        "name": "Murray County",
        "latitude": "44.02212000",
        "longitude": "-95.76328000",
        "is_active": true
    },
    {
        "id": 135309,
        "state_id": 4722,
        "country_id": 237,
        "name": "New Brighton",
        "latitude": "45.06552000",
        "longitude": "-93.20189000",
        "is_active": true
    },
    {
        "id": 135310,
        "state_id": 4722,
        "country_id": 237,
        "name": "New Hope",
        "latitude": "45.03802000",
        "longitude": "-93.38662000",
        "is_active": true
    },
    {
        "id": 135311,
        "state_id": 4722,
        "country_id": 237,
        "name": "New London",
        "latitude": "45.30108000",
        "longitude": "-94.94418000",
        "is_active": true
    },
    {
        "id": 135312,
        "state_id": 4722,
        "country_id": 237,
        "name": "New Prague",
        "latitude": "44.54330000",
        "longitude": "-93.57607000",
        "is_active": true
    },
    {
        "id": 135313,
        "state_id": 4722,
        "country_id": 237,
        "name": "New Richland",
        "latitude": "43.89385000",
        "longitude": "-93.49383000",
        "is_active": true
    },
    {
        "id": 135314,
        "state_id": 4722,
        "country_id": 237,
        "name": "New Ulm",
        "latitude": "44.31246000",
        "longitude": "-94.46053000",
        "is_active": true
    },
    {
        "id": 135315,
        "state_id": 4722,
        "country_id": 237,
        "name": "New York Mills",
        "latitude": "46.51802000",
        "longitude": "-95.37615000",
        "is_active": true
    },
    {
        "id": 135316,
        "state_id": 4722,
        "country_id": 237,
        "name": "Newport",
        "latitude": "44.86636000",
        "longitude": "-93.00049000",
        "is_active": true
    },
    {
        "id": 135317,
        "state_id": 4722,
        "country_id": 237,
        "name": "Nicollet",
        "latitude": "44.27608000",
        "longitude": "-94.18746000",
        "is_active": true
    },
    {
        "id": 135318,
        "state_id": 4722,
        "country_id": 237,
        "name": "Nicollet County",
        "latitude": "44.34989000",
        "longitude": "-94.24730000",
        "is_active": true
    },
    {
        "id": 135319,
        "state_id": 4722,
        "country_id": 237,
        "name": "Nisswa",
        "latitude": "46.52052000",
        "longitude": "-94.28861000",
        "is_active": true
    },
    {
        "id": 135320,
        "state_id": 4722,
        "country_id": 237,
        "name": "Nobles County",
        "latitude": "43.67424000",
        "longitude": "-95.75339000",
        "is_active": true
    },
    {
        "id": 135321,
        "state_id": 4722,
        "country_id": 237,
        "name": "Norman County",
        "latitude": "47.32648000",
        "longitude": "-96.45528000",
        "is_active": true
    },
    {
        "id": 135322,
        "state_id": 4722,
        "country_id": 237,
        "name": "North Branch",
        "latitude": "45.51135000",
        "longitude": "-92.98022000",
        "is_active": true
    },
    {
        "id": 135323,
        "state_id": 4722,
        "country_id": 237,
        "name": "North Mankato",
        "latitude": "44.17330000",
        "longitude": "-94.03385000",
        "is_active": true
    },
    {
        "id": 135324,
        "state_id": 4722,
        "country_id": 237,
        "name": "North Oaks",
        "latitude": "45.10274000",
        "longitude": "-93.07911000",
        "is_active": true
    },
    {
        "id": 135325,
        "state_id": 4722,
        "country_id": 237,
        "name": "North Saint Paul",
        "latitude": "45.01247000",
        "longitude": "-92.99188000",
        "is_active": true
    },
    {
        "id": 135326,
        "state_id": 4722,
        "country_id": 237,
        "name": "Northfield",
        "latitude": "44.45830000",
        "longitude": "-93.16160000",
        "is_active": true
    },
    {
        "id": 135327,
        "state_id": 4722,
        "country_id": 237,
        "name": "Norwood (historical)",
        "latitude": "44.76802000",
        "longitude": "-93.92747000",
        "is_active": true
    },
    {
        "id": 135328,
        "state_id": 4722,
        "country_id": 237,
        "name": "Norwood Young America",
        "latitude": "44.77357000",
        "longitude": "-93.92163000",
        "is_active": true
    },
    {
        "id": 135329,
        "state_id": 4722,
        "country_id": 237,
        "name": "Nowthen",
        "latitude": "45.32802000",
        "longitude": "-93.47023000",
        "is_active": true
    },
    {
        "id": 135330,
        "state_id": 4722,
        "country_id": 237,
        "name": "Oak Grove",
        "latitude": "45.34080000",
        "longitude": "-93.32690000",
        "is_active": true
    },
    {
        "id": 135331,
        "state_id": 4722,
        "country_id": 237,
        "name": "Oak Park Heights",
        "latitude": "45.03136000",
        "longitude": "-92.79298000",
        "is_active": true
    },
    {
        "id": 135332,
        "state_id": 4722,
        "country_id": 237,
        "name": "Oakdale",
        "latitude": "44.96302000",
        "longitude": "-92.96494000",
        "is_active": true
    },
    {
        "id": 135333,
        "state_id": 4722,
        "country_id": 237,
        "name": "Oakport",
        "latitude": "46.93191000",
        "longitude": "-96.77897000",
        "is_active": true
    },
    {
        "id": 135334,
        "state_id": 4722,
        "country_id": 237,
        "name": "Olivia",
        "latitude": "44.77635000",
        "longitude": "-94.98972000",
        "is_active": true
    },
    {
        "id": 135335,
        "state_id": 4722,
        "country_id": 237,
        "name": "Olmsted County",
        "latitude": "44.00375000",
        "longitude": "-92.40177000",
        "is_active": true
    },
    {
        "id": 135336,
        "state_id": 4722,
        "country_id": 237,
        "name": "Orono",
        "latitude": "44.97135000",
        "longitude": "-93.60440000",
        "is_active": true
    },
    {
        "id": 135337,
        "state_id": 4722,
        "country_id": 237,
        "name": "Oronoco",
        "latitude": "44.16608000",
        "longitude": "-92.53491000",
        "is_active": true
    },
    {
        "id": 135338,
        "state_id": 4722,
        "country_id": 237,
        "name": "Ortonville",
        "latitude": "45.30469000",
        "longitude": "-96.44478000",
        "is_active": true
    },
    {
        "id": 135339,
        "state_id": 4722,
        "country_id": 237,
        "name": "Osakis",
        "latitude": "45.86691000",
        "longitude": "-95.15225000",
        "is_active": true
    },
    {
        "id": 135340,
        "state_id": 4722,
        "country_id": 237,
        "name": "Osseo",
        "latitude": "45.11941000",
        "longitude": "-93.40245000",
        "is_active": true
    },
    {
        "id": 135341,
        "state_id": 4722,
        "country_id": 237,
        "name": "Otsego",
        "latitude": "45.27413000",
        "longitude": "-93.59135000",
        "is_active": true
    },
    {
        "id": 135342,
        "state_id": 4722,
        "country_id": 237,
        "name": "Otter Tail County",
        "latitude": "46.40880000",
        "longitude": "-95.70800000",
        "is_active": true
    },
    {
        "id": 135343,
        "state_id": 4722,
        "country_id": 237,
        "name": "Owatonna",
        "latitude": "44.08385000",
        "longitude": "-93.22604000",
        "is_active": true
    },
    {
        "id": 135344,
        "state_id": 4722,
        "country_id": 237,
        "name": "Park Rapids",
        "latitude": "46.92218000",
        "longitude": "-95.05863000",
        "is_active": true
    },
    {
        "id": 135345,
        "state_id": 4722,
        "country_id": 237,
        "name": "Parkers Prairie",
        "latitude": "46.15302000",
        "longitude": "-95.32892000",
        "is_active": true
    },
    {
        "id": 135346,
        "state_id": 4722,
        "country_id": 237,
        "name": "Parkville",
        "latitude": "47.53104000",
        "longitude": "-92.57907000",
        "is_active": true
    },
    {
        "id": 135347,
        "state_id": 4722,
        "country_id": 237,
        "name": "Paynesville",
        "latitude": "45.38052000",
        "longitude": "-94.71195000",
        "is_active": true
    },
    {
        "id": 135348,
        "state_id": 4722,
        "country_id": 237,
        "name": "Pelican Rapids",
        "latitude": "46.57079000",
        "longitude": "-96.08311000",
        "is_active": true
    },
    {
        "id": 135349,
        "state_id": 4722,
        "country_id": 237,
        "name": "Pennington County",
        "latitude": "48.06623000",
        "longitude": "-96.03667000",
        "is_active": true
    },
    {
        "id": 135350,
        "state_id": 4722,
        "country_id": 237,
        "name": "Pequot Lakes",
        "latitude": "46.60302000",
        "longitude": "-94.30944000",
        "is_active": true
    },
    {
        "id": 135351,
        "state_id": 4722,
        "country_id": 237,
        "name": "Perham",
        "latitude": "46.59440000",
        "longitude": "-95.57254000",
        "is_active": true
    },
    {
        "id": 135352,
        "state_id": 4722,
        "country_id": 237,
        "name": "Pierz",
        "latitude": "45.98163000",
        "longitude": "-94.10471000",
        "is_active": true
    },
    {
        "id": 135353,
        "state_id": 4722,
        "country_id": 237,
        "name": "Pine City",
        "latitude": "45.82607000",
        "longitude": "-92.96854000",
        "is_active": true
    },
    {
        "id": 135354,
        "state_id": 4722,
        "country_id": 237,
        "name": "Pine County",
        "latitude": "46.12077000",
        "longitude": "-92.74127000",
        "is_active": true
    },
    {
        "id": 135355,
        "state_id": 4722,
        "country_id": 237,
        "name": "Pine Island",
        "latitude": "44.20135000",
        "longitude": "-92.64630000",
        "is_active": true
    },
    {
        "id": 135356,
        "state_id": 4722,
        "country_id": 237,
        "name": "Pipestone",
        "latitude": "44.00053000",
        "longitude": "-96.31753000",
        "is_active": true
    },
    {
        "id": 135357,
        "state_id": 4722,
        "country_id": 237,
        "name": "Pipestone County",
        "latitude": "44.02300000",
        "longitude": "-96.25864000",
        "is_active": true
    },
    {
        "id": 135358,
        "state_id": 4722,
        "country_id": 237,
        "name": "Plainview",
        "latitude": "44.16497000",
        "longitude": "-92.17156000",
        "is_active": true
    },
    {
        "id": 135359,
        "state_id": 4722,
        "country_id": 237,
        "name": "Plymouth",
        "latitude": "45.01052000",
        "longitude": "-93.45551000",
        "is_active": true
    },
    {
        "id": 135360,
        "state_id": 4722,
        "country_id": 237,
        "name": "Polk County",
        "latitude": "47.77385000",
        "longitude": "-96.40181000",
        "is_active": true
    },
    {
        "id": 135361,
        "state_id": 4722,
        "country_id": 237,
        "name": "Pope County",
        "latitude": "45.58602000",
        "longitude": "-95.44448000",
        "is_active": true
    },
    {
        "id": 135362,
        "state_id": 4722,
        "country_id": 237,
        "name": "Preston",
        "latitude": "43.67024000",
        "longitude": "-92.08322000",
        "is_active": true
    },
    {
        "id": 135363,
        "state_id": 4722,
        "country_id": 237,
        "name": "Princeton",
        "latitude": "45.56997000",
        "longitude": "-93.58163000",
        "is_active": true
    },
    {
        "id": 135364,
        "state_id": 4722,
        "country_id": 237,
        "name": "Prior Lake",
        "latitude": "44.71330000",
        "longitude": "-93.42273000",
        "is_active": true
    },
    {
        "id": 135365,
        "state_id": 4722,
        "country_id": 237,
        "name": "Proctor",
        "latitude": "46.74716000",
        "longitude": "-92.22547000",
        "is_active": true
    },
    {
        "id": 135366,
        "state_id": 4722,
        "country_id": 237,
        "name": "Ramsey",
        "latitude": "45.26110000",
        "longitude": "-93.45000000",
        "is_active": true
    },
    {
        "id": 135367,
        "state_id": 4722,
        "country_id": 237,
        "name": "Ramsey County",
        "latitude": "45.01706000",
        "longitude": "-93.09961000",
        "is_active": true
    },
    {
        "id": 135368,
        "state_id": 4722,
        "country_id": 237,
        "name": "Red Lake",
        "latitude": "47.87635000",
        "longitude": "-95.01694000",
        "is_active": true
    },
    {
        "id": 135369,
        "state_id": 4722,
        "country_id": 237,
        "name": "Red Lake County",
        "latitude": "47.87169000",
        "longitude": "-96.09530000",
        "is_active": true
    },
    {
        "id": 135370,
        "state_id": 4722,
        "country_id": 237,
        "name": "Red Lake Falls",
        "latitude": "47.88219000",
        "longitude": "-96.27421000",
        "is_active": true
    },
    {
        "id": 135371,
        "state_id": 4722,
        "country_id": 237,
        "name": "Red Wing",
        "latitude": "44.56247000",
        "longitude": "-92.53380000",
        "is_active": true
    },
    {
        "id": 135372,
        "state_id": 4722,
        "country_id": 237,
        "name": "Redby",
        "latitude": "47.87857000",
        "longitude": "-94.91305000",
        "is_active": true
    },
    {
        "id": 135373,
        "state_id": 4722,
        "country_id": 237,
        "name": "Redwood County",
        "latitude": "44.40366000",
        "longitude": "-95.25383000",
        "is_active": true
    },
    {
        "id": 135374,
        "state_id": 4722,
        "country_id": 237,
        "name": "Redwood Falls",
        "latitude": "44.53940000",
        "longitude": "-95.11694000",
        "is_active": true
    },
    {
        "id": 135375,
        "state_id": 4722,
        "country_id": 237,
        "name": "Renville",
        "latitude": "44.78913000",
        "longitude": "-95.21167000",
        "is_active": true
    },
    {
        "id": 135376,
        "state_id": 4722,
        "country_id": 237,
        "name": "Renville County",
        "latitude": "44.72681000",
        "longitude": "-94.94714000",
        "is_active": true
    },
    {
        "id": 135377,
        "state_id": 4722,
        "country_id": 237,
        "name": "Rice",
        "latitude": "45.75191000",
        "longitude": "-94.22027000",
        "is_active": true
    },
    {
        "id": 135378,
        "state_id": 4722,
        "country_id": 237,
        "name": "Rice County",
        "latitude": "44.35426000",
        "longitude": "-93.29668000",
        "is_active": true
    },
    {
        "id": 135379,
        "state_id": 4722,
        "country_id": 237,
        "name": "Richfield",
        "latitude": "44.88330000",
        "longitude": "-93.28300000",
        "is_active": true
    },
    {
        "id": 135380,
        "state_id": 4722,
        "country_id": 237,
        "name": "Richmond",
        "latitude": "45.45413000",
        "longitude": "-94.51833000",
        "is_active": true
    },
    {
        "id": 135381,
        "state_id": 4722,
        "country_id": 237,
        "name": "Robbinsdale",
        "latitude": "45.03219000",
        "longitude": "-93.33856000",
        "is_active": true
    },
    {
        "id": 135382,
        "state_id": 4722,
        "country_id": 237,
        "name": "Rochester",
        "latitude": "44.02163000",
        "longitude": "-92.46990000",
        "is_active": true
    },
    {
        "id": 135383,
        "state_id": 4722,
        "country_id": 237,
        "name": "Rock County",
        "latitude": "43.67463000",
        "longitude": "-96.25321000",
        "is_active": true
    },
    {
        "id": 135384,
        "state_id": 4722,
        "country_id": 237,
        "name": "Rock Creek",
        "latitude": "45.75746000",
        "longitude": "-92.96243000",
        "is_active": true
    },
    {
        "id": 135385,
        "state_id": 4722,
        "country_id": 237,
        "name": "Rockford",
        "latitude": "45.08830000",
        "longitude": "-93.73441000",
        "is_active": true
    },
    {
        "id": 135386,
        "state_id": 4722,
        "country_id": 237,
        "name": "Rockville",
        "latitude": "45.47191000",
        "longitude": "-94.34083000",
        "is_active": true
    },
    {
        "id": 135387,
        "state_id": 4722,
        "country_id": 237,
        "name": "Rogers",
        "latitude": "45.18885000",
        "longitude": "-93.55301000",
        "is_active": true
    },
    {
        "id": 135388,
        "state_id": 4722,
        "country_id": 237,
        "name": "Roseau",
        "latitude": "48.84609000",
        "longitude": "-95.76277000",
        "is_active": true
    },
    {
        "id": 135389,
        "state_id": 4722,
        "country_id": 237,
        "name": "Roseau County",
        "latitude": "48.77514000",
        "longitude": "-95.81082000",
        "is_active": true
    },
    {
        "id": 135390,
        "state_id": 4722,
        "country_id": 237,
        "name": "Rosemount",
        "latitude": "44.73941000",
        "longitude": "-93.12577000",
        "is_active": true
    },
    {
        "id": 135391,
        "state_id": 4722,
        "country_id": 237,
        "name": "Roseville",
        "latitude": "45.00608000",
        "longitude": "-93.15661000",
        "is_active": true
    },
    {
        "id": 135392,
        "state_id": 4722,
        "country_id": 237,
        "name": "Royalton",
        "latitude": "45.82997000",
        "longitude": "-94.29361000",
        "is_active": true
    },
    {
        "id": 135393,
        "state_id": 4722,
        "country_id": 237,
        "name": "Rush City",
        "latitude": "45.68551000",
        "longitude": "-92.96549000",
        "is_active": true
    },
    {
        "id": 135394,
        "state_id": 4722,
        "country_id": 237,
        "name": "Rushford",
        "latitude": "43.80830000",
        "longitude": "-91.75293000",
        "is_active": true
    },
    {
        "id": 135395,
        "state_id": 4722,
        "country_id": 237,
        "name": "Saint Anthony",
        "latitude": "45.02052000",
        "longitude": "-93.21800000",
        "is_active": true
    },
    {
        "id": 135396,
        "state_id": 4722,
        "country_id": 237,
        "name": "Saint Augusta",
        "latitude": "45.45830000",
        "longitude": "-94.19804000",
        "is_active": true
    },
    {
        "id": 135397,
        "state_id": 4722,
        "country_id": 237,
        "name": "Saint Bonifacius",
        "latitude": "44.90552000",
        "longitude": "-93.74746000",
        "is_active": true
    },
    {
        "id": 135398,
        "state_id": 4722,
        "country_id": 237,
        "name": "Saint Charles",
        "latitude": "43.96941000",
        "longitude": "-92.06433000",
        "is_active": true
    },
    {
        "id": 135399,
        "state_id": 4722,
        "country_id": 237,
        "name": "Saint Cloud",
        "latitude": "45.56080000",
        "longitude": "-94.16249000",
        "is_active": true
    },
    {
        "id": 135400,
        "state_id": 4722,
        "country_id": 237,
        "name": "Saint Francis",
        "latitude": "45.38691000",
        "longitude": "-93.35940000",
        "is_active": true
    },
    {
        "id": 135401,
        "state_id": 4722,
        "country_id": 237,
        "name": "Saint James",
        "latitude": "43.98246000",
        "longitude": "-94.62692000",
        "is_active": true
    },
    {
        "id": 135402,
        "state_id": 4722,
        "country_id": 237,
        "name": "Saint Joseph",
        "latitude": "45.56496000",
        "longitude": "-94.31833000",
        "is_active": true
    },
    {
        "id": 135403,
        "state_id": 4722,
        "country_id": 237,
        "name": "Saint Louis County",
        "latitude": "47.58986000",
        "longitude": "-92.46147000",
        "is_active": true
    },
    {
        "id": 135404,
        "state_id": 4722,
        "country_id": 237,
        "name": "Saint Louis Park",
        "latitude": "44.94830000",
        "longitude": "-93.34801000",
        "is_active": true
    },
    {
        "id": 135405,
        "state_id": 4722,
        "country_id": 237,
        "name": "Saint Michael",
        "latitude": "45.20996000",
        "longitude": "-93.66496000",
        "is_active": true
    },
    {
        "id": 135406,
        "state_id": 4722,
        "country_id": 237,
        "name": "Saint Paul",
        "latitude": "44.94441000",
        "longitude": "-93.09327000",
        "is_active": true
    },
    {
        "id": 135407,
        "state_id": 4722,
        "country_id": 237,
        "name": "Saint Paul Park",
        "latitude": "44.84219000",
        "longitude": "-92.99132000",
        "is_active": true
    },
    {
        "id": 135408,
        "state_id": 4722,
        "country_id": 237,
        "name": "Saint Peter",
        "latitude": "44.32358000",
        "longitude": "-93.95801000",
        "is_active": true
    },
    {
        "id": 135409,
        "state_id": 4722,
        "country_id": 237,
        "name": "Sandstone",
        "latitude": "46.13106000",
        "longitude": "-92.86742000",
        "is_active": true
    },
    {
        "id": 135410,
        "state_id": 4722,
        "country_id": 237,
        "name": "Sartell",
        "latitude": "45.62163000",
        "longitude": "-94.20694000",
        "is_active": true
    },
    {
        "id": 135411,
        "state_id": 4722,
        "country_id": 237,
        "name": "Sauk Centre",
        "latitude": "45.73747000",
        "longitude": "-94.95252000",
        "is_active": true
    },
    {
        "id": 135412,
        "state_id": 4722,
        "country_id": 237,
        "name": "Sauk Rapids",
        "latitude": "45.59191000",
        "longitude": "-94.16610000",
        "is_active": true
    },
    {
        "id": 135413,
        "state_id": 4722,
        "country_id": 237,
        "name": "Savage",
        "latitude": "44.77913000",
        "longitude": "-93.33634000",
        "is_active": true
    },
    {
        "id": 135414,
        "state_id": 4722,
        "country_id": 237,
        "name": "Scandia",
        "latitude": "45.25358000",
        "longitude": "-92.80577000",
        "is_active": true
    },
    {
        "id": 135415,
        "state_id": 4722,
        "country_id": 237,
        "name": "Scott County",
        "latitude": "44.64846000",
        "longitude": "-93.53593000",
        "is_active": true
    },
    {
        "id": 135416,
        "state_id": 4722,
        "country_id": 237,
        "name": "Shafer",
        "latitude": "45.38691000",
        "longitude": "-92.74771000",
        "is_active": true
    },
    {
        "id": 135417,
        "state_id": 4722,
        "country_id": 237,
        "name": "Shakopee",
        "latitude": "44.79802000",
        "longitude": "-93.52690000",
        "is_active": true
    },
    {
        "id": 135418,
        "state_id": 4722,
        "country_id": 237,
        "name": "Sherburn",
        "latitude": "43.65218000",
        "longitude": "-94.72692000",
        "is_active": true
    },
    {
        "id": 135419,
        "state_id": 4722,
        "country_id": 237,
        "name": "Sherburne County",
        "latitude": "45.44395000",
        "longitude": "-93.77459000",
        "is_active": true
    },
    {
        "id": 135420,
        "state_id": 4722,
        "country_id": 237,
        "name": "Shoreview",
        "latitude": "45.07913000",
        "longitude": "-93.14717000",
        "is_active": true
    },
    {
        "id": 135421,
        "state_id": 4722,
        "country_id": 237,
        "name": "Shorewood",
        "latitude": "44.90080000",
        "longitude": "-93.58912000",
        "is_active": true
    },
    {
        "id": 135422,
        "state_id": 4722,
        "country_id": 237,
        "name": "Sibley County",
        "latitude": "44.57948000",
        "longitude": "-94.23216000",
        "is_active": true
    },
    {
        "id": 135423,
        "state_id": 4722,
        "country_id": 237,
        "name": "Silver Bay",
        "latitude": "47.29436000",
        "longitude": "-91.25739000",
        "is_active": true
    },
    {
        "id": 135424,
        "state_id": 4722,
        "country_id": 237,
        "name": "Slayton",
        "latitude": "43.98774000",
        "longitude": "-95.75585000",
        "is_active": true
    },
    {
        "id": 135425,
        "state_id": 4722,
        "country_id": 237,
        "name": "Sleepy Eye",
        "latitude": "44.29718000",
        "longitude": "-94.72415000",
        "is_active": true
    },
    {
        "id": 135426,
        "state_id": 4722,
        "country_id": 237,
        "name": "South Saint Paul",
        "latitude": "44.89274000",
        "longitude": "-93.03494000",
        "is_active": true
    },
    {
        "id": 135427,
        "state_id": 4722,
        "country_id": 237,
        "name": "Spicer",
        "latitude": "45.23302000",
        "longitude": "-94.94001000",
        "is_active": true
    },
    {
        "id": 135428,
        "state_id": 4722,
        "country_id": 237,
        "name": "Spring Grove",
        "latitude": "43.56108000",
        "longitude": "-91.63598000",
        "is_active": true
    },
    {
        "id": 135429,
        "state_id": 4722,
        "country_id": 237,
        "name": "Spring Lake Park",
        "latitude": "45.10774000",
        "longitude": "-93.23800000",
        "is_active": true
    },
    {
        "id": 135430,
        "state_id": 4722,
        "country_id": 237,
        "name": "Spring Park",
        "latitude": "44.93524000",
        "longitude": "-93.63218000",
        "is_active": true
    },
    {
        "id": 135431,
        "state_id": 4722,
        "country_id": 237,
        "name": "Spring Valley",
        "latitude": "43.68691000",
        "longitude": "-92.38906000",
        "is_active": true
    },
    {
        "id": 135432,
        "state_id": 4722,
        "country_id": 237,
        "name": "Springfield",
        "latitude": "44.23885000",
        "longitude": "-94.97582000",
        "is_active": true
    },
    {
        "id": 135433,
        "state_id": 4722,
        "country_id": 237,
        "name": "Stacy",
        "latitude": "45.39802000",
        "longitude": "-92.98744000",
        "is_active": true
    },
    {
        "id": 135434,
        "state_id": 4722,
        "country_id": 237,
        "name": "Staples",
        "latitude": "46.35552000",
        "longitude": "-94.79224000",
        "is_active": true
    },
    {
        "id": 135435,
        "state_id": 4722,
        "country_id": 237,
        "name": "Starbuck",
        "latitude": "45.61440000",
        "longitude": "-95.53115000",
        "is_active": true
    },
    {
        "id": 135436,
        "state_id": 4722,
        "country_id": 237,
        "name": "Stearns County",
        "latitude": "45.55215000",
        "longitude": "-94.61302000",
        "is_active": true
    },
    {
        "id": 135437,
        "state_id": 4722,
        "country_id": 237,
        "name": "Steele County",
        "latitude": "44.02234000",
        "longitude": "-93.22604000",
        "is_active": true
    },
    {
        "id": 135438,
        "state_id": 4722,
        "country_id": 237,
        "name": "Stevens County",
        "latitude": "45.58613000",
        "longitude": "-96.00030000",
        "is_active": true
    },
    {
        "id": 135439,
        "state_id": 4722,
        "country_id": 237,
        "name": "Stewartville",
        "latitude": "43.85552000",
        "longitude": "-92.48851000",
        "is_active": true
    },
    {
        "id": 135440,
        "state_id": 4722,
        "country_id": 237,
        "name": "Stillwater",
        "latitude": "45.05636000",
        "longitude": "-92.80604000",
        "is_active": true
    },
    {
        "id": 135441,
        "state_id": 4722,
        "country_id": 237,
        "name": "Swift County",
        "latitude": "45.28271000",
        "longitude": "-95.68143000",
        "is_active": true
    },
    {
        "id": 135442,
        "state_id": 4722,
        "country_id": 237,
        "name": "Taylors Falls",
        "latitude": "45.40191000",
        "longitude": "-92.65243000",
        "is_active": true
    },
    {
        "id": 135443,
        "state_id": 4722,
        "country_id": 237,
        "name": "Thief River Falls",
        "latitude": "48.11914000",
        "longitude": "-96.18115000",
        "is_active": true
    },
    {
        "id": 135444,
        "state_id": 4722,
        "country_id": 237,
        "name": "Todd County",
        "latitude": "46.07062000",
        "longitude": "-94.89760000",
        "is_active": true
    },
    {
        "id": 135445,
        "state_id": 4722,
        "country_id": 237,
        "name": "Tonka Bay",
        "latitude": "44.90857000",
        "longitude": "-93.59301000",
        "is_active": true
    },
    {
        "id": 135446,
        "state_id": 4722,
        "country_id": 237,
        "name": "Tracy",
        "latitude": "44.23329000",
        "longitude": "-95.61918000",
        "is_active": true
    },
    {
        "id": 135447,
        "state_id": 4722,
        "country_id": 237,
        "name": "Traverse County",
        "latitude": "45.77218000",
        "longitude": "-96.47164000",
        "is_active": true
    },
    {
        "id": 135448,
        "state_id": 4722,
        "country_id": 237,
        "name": "Truman",
        "latitude": "43.82773000",
        "longitude": "-94.43719000",
        "is_active": true
    },
    {
        "id": 135449,
        "state_id": 4722,
        "country_id": 237,
        "name": "Two Harbors",
        "latitude": "47.02271000",
        "longitude": "-91.67073000",
        "is_active": true
    },
    {
        "id": 135450,
        "state_id": 4722,
        "country_id": 237,
        "name": "Tyler",
        "latitude": "44.27830000",
        "longitude": "-96.13475000",
        "is_active": true
    },
    {
        "id": 135451,
        "state_id": 4722,
        "country_id": 237,
        "name": "Vadnais Heights",
        "latitude": "45.05747000",
        "longitude": "-93.07383000",
        "is_active": true
    },
    {
        "id": 135452,
        "state_id": 4722,
        "country_id": 237,
        "name": "Victoria",
        "latitude": "44.85857000",
        "longitude": "-93.66163000",
        "is_active": true
    },
    {
        "id": 135453,
        "state_id": 4722,
        "country_id": 237,
        "name": "Vineland",
        "latitude": "46.16357000",
        "longitude": "-93.75747000",
        "is_active": true
    },
    {
        "id": 135454,
        "state_id": 4722,
        "country_id": 237,
        "name": "Virginia",
        "latitude": "47.52326000",
        "longitude": "-92.53657000",
        "is_active": true
    },
    {
        "id": 135455,
        "state_id": 4722,
        "country_id": 237,
        "name": "Wabasha",
        "latitude": "44.38386000",
        "longitude": "-92.03294000",
        "is_active": true
    },
    {
        "id": 135456,
        "state_id": 4722,
        "country_id": 237,
        "name": "Wabasha County",
        "latitude": "44.28428000",
        "longitude": "-92.23027000",
        "is_active": true
    },
    {
        "id": 135457,
        "state_id": 4722,
        "country_id": 237,
        "name": "Waconia",
        "latitude": "44.85080000",
        "longitude": "-93.78691000",
        "is_active": true
    },
    {
        "id": 135458,
        "state_id": 4722,
        "country_id": 237,
        "name": "Wadena",
        "latitude": "46.44246000",
        "longitude": "-95.13614000",
        "is_active": true
    },
    {
        "id": 135459,
        "state_id": 4722,
        "country_id": 237,
        "name": "Wadena County",
        "latitude": "46.58576000",
        "longitude": "-94.96941000",
        "is_active": true
    },
    {
        "id": 135460,
        "state_id": 4722,
        "country_id": 237,
        "name": "Waite Park",
        "latitude": "45.55719000",
        "longitude": "-94.22416000",
        "is_active": true
    },
    {
        "id": 135461,
        "state_id": 4722,
        "country_id": 237,
        "name": "Walker",
        "latitude": "47.10135000",
        "longitude": "-94.58722000",
        "is_active": true
    },
    {
        "id": 135462,
        "state_id": 4722,
        "country_id": 237,
        "name": "Wanamingo",
        "latitude": "44.30441000",
        "longitude": "-92.79047000",
        "is_active": true
    },