[
    {
        "id": 30001,
        "state_id": 980,
        "country_id": 83,
        "name": "Oschatz",
        "latitude": "51.30001000",
        "longitude": "13.10984000",
        "is_active": true
    },
    {
        "id": 30002,
        "state_id": 980,
        "country_id": 83,
        "name": "Ostrau",
        "latitude": "51.20639000",
        "longitude": "12.88421000",
        "is_active": true
    },
    {
        "id": 30003,
        "state_id": 980,
        "country_id": 83,
        "name": "Ostritz",
        "latitude": "51.01451000",
        "longitude": "14.93059000",
        "is_active": true
    },
    {
        "id": 30004,
        "state_id": 980,
        "country_id": 83,
        "name": "Ottendorf-Okrilla",
        "latitude": "51.18333000",
        "longitude": "13.83333000",
        "is_active": true
    },
    {
        "id": 30005,
        "state_id": 980,
        "country_id": 83,
        "name": "Otterwisch",
        "latitude": "51.20000000",
        "longitude": "12.61667000",
        "is_active": true
    },
    {
        "id": 30006,
        "state_id": 980,
        "country_id": 83,
        "name": "Oßling",
        "latitude": "51.35999000",
        "longitude": "14.16567000",
        "is_active": true
    },
    {
        "id": 30007,
        "state_id": 980,
        "country_id": 83,
        "name": "Panschwitz-Kuckau",
        "latitude": "51.23395000",
        "longitude": "14.19791000",
        "is_active": true
    },
    {
        "id": 30008,
        "state_id": 980,
        "country_id": 83,
        "name": "Pausa",
        "latitude": "50.58172000",
        "longitude": "11.99732000",
        "is_active": true
    },
    {
        "id": 30009,
        "state_id": 980,
        "country_id": 83,
        "name": "Pegau",
        "latitude": "51.16715000",
        "longitude": "12.25144000",
        "is_active": true
    },
    {
        "id": 30010,
        "state_id": 980,
        "country_id": 83,
        "name": "Penig",
        "latitude": "50.93336000",
        "longitude": "12.70422000",
        "is_active": true
    },
    {
        "id": 30011,
        "state_id": 980,
        "country_id": 83,
        "name": "Pfaffroda",
        "latitude": "50.86134000",
        "longitude": "12.51497000",
        "is_active": true
    },
    {
        "id": 30012,
        "state_id": 980,
        "country_id": 83,
        "name": "Pirna",
        "latitude": "50.95843000",
        "longitude": "13.93702000",
        "is_active": true
    },
    {
        "id": 30013,
        "state_id": 980,
        "country_id": 83,
        "name": "Plauen",
        "latitude": "50.49730000",
        "longitude": "12.13782000",
        "is_active": true
    },
    {
        "id": 30014,
        "state_id": 980,
        "country_id": 83,
        "name": "Pobershau",
        "latitude": "50.64079000",
        "longitude": "13.21776000",
        "is_active": true
    },
    {
        "id": 30015,
        "state_id": 980,
        "country_id": 83,
        "name": "Pockau",
        "latitude": "50.70000000",
        "longitude": "13.23333000",
        "is_active": true
    },
    {
        "id": 30016,
        "state_id": 980,
        "country_id": 83,
        "name": "Porschdorf",
        "latitude": "50.94180000",
        "longitude": "14.12687000",
        "is_active": true
    },
    {
        "id": 30017,
        "state_id": 980,
        "country_id": 83,
        "name": "Pretzschendorf",
        "latitude": "50.87385000",
        "longitude": "13.52499000",
        "is_active": true
    },
    {
        "id": 30018,
        "state_id": 980,
        "country_id": 83,
        "name": "Priestewitz",
        "latitude": "51.25000000",
        "longitude": "13.51667000",
        "is_active": true
    },
    {
        "id": 30019,
        "state_id": 980,
        "country_id": 83,
        "name": "Puschwitz",
        "latitude": "51.25501000",
        "longitude": "14.30111000",
        "is_active": true
    },
    {
        "id": 30020,
        "state_id": 980,
        "country_id": 83,
        "name": "Pöhl",
        "latitude": "50.39311000",
        "longitude": "12.32908000",
        "is_active": true
    },
    {
        "id": 30021,
        "state_id": 980,
        "country_id": 83,
        "name": "Pöhla",
        "latitude": "50.51143000",
        "longitude": "12.81889000",
        "is_active": true
    },
    {
        "id": 30022,
        "state_id": 980,
        "country_id": 83,
        "name": "Quitzdorf",
        "latitude": "51.28333000",
        "longitude": "14.76667000",
        "is_active": true
    },
    {
        "id": 30023,
        "state_id": 980,
        "country_id": 83,
        "name": "Rabenau",
        "latitude": "50.96484000",
        "longitude": "13.64305000",
        "is_active": true
    },
    {
        "id": 30024,
        "state_id": 980,
        "country_id": 83,
        "name": "Rackwitz",
        "latitude": "51.43333000",
        "longitude": "12.38333000",
        "is_active": true
    },
    {
        "id": 30025,
        "state_id": 980,
        "country_id": 83,
        "name": "Radeberg",
        "latitude": "51.11112000",
        "longitude": "13.91199000",
        "is_active": true
    },
    {
        "id": 30026,
        "state_id": 980,
        "country_id": 83,
        "name": "Radebeul",
        "latitude": "51.10654000",
        "longitude": "13.66047000",
        "is_active": true
    },
    {
        "id": 30027,
        "state_id": 980,
        "country_id": 83,
        "name": "Radeburg",
        "latitude": "51.21516000",
        "longitude": "13.72810000",
        "is_active": true
    },
    {
        "id": 30028,
        "state_id": 980,
        "country_id": 83,
        "name": "Radibor",
        "latitude": "51.24481000",
        "longitude": "14.39842000",
        "is_active": true
    },
    {
        "id": 30029,
        "state_id": 980,
        "country_id": 83,
        "name": "Rammenau",
        "latitude": "51.15000000",
        "longitude": "14.13333000",
        "is_active": true
    },
    {
        "id": 30030,
        "state_id": 980,
        "country_id": 83,
        "name": "Raschau",
        "latitude": "50.53127000",
        "longitude": "12.83312000",
        "is_active": true
    },
    {
        "id": 30031,
        "state_id": 980,
        "country_id": 83,
        "name": "Rathmannsdorf",
        "latitude": "50.92993000",
        "longitude": "14.14224000",
        "is_active": true
    },
    {
        "id": 30032,
        "state_id": 980,
        "country_id": 83,
        "name": "Rechenberg-Bienenmühle",
        "latitude": "50.73777000",
        "longitude": "13.53502000",
        "is_active": true
    },
    {
        "id": 30033,
        "state_id": 980,
        "country_id": 83,
        "name": "Regis-Breitingen",
        "latitude": "51.08883000",
        "longitude": "12.43841000",
        "is_active": true
    },
    {
        "id": 30034,
        "state_id": 980,
        "country_id": 83,
        "name": "Reichenbach",
        "latitude": "51.14144000",
        "longitude": "14.80270000",
        "is_active": true
    },
    {
        "id": 30035,
        "state_id": 980,
        "country_id": 83,
        "name": "Reichenbach/Vogtland",
        "latitude": "50.62279000",
        "longitude": "12.30344000",
        "is_active": true
    },
    {
        "id": 30036,
        "state_id": 980,
        "country_id": 83,
        "name": "Reinhardtsgrimma",
        "latitude": "50.89270000",
        "longitude": "13.75534000",
        "is_active": true
    },
    {
        "id": 30037,
        "state_id": 980,
        "country_id": 83,
        "name": "Reinsberg",
        "latitude": "51.00823000",
        "longitude": "13.36542000",
        "is_active": true
    },
    {
        "id": 30038,
        "state_id": 980,
        "country_id": 83,
        "name": "Reinsdorf",
        "latitude": "50.69775000",
        "longitude": "12.55555000",
        "is_active": true
    },
    {
        "id": 30039,
        "state_id": 980,
        "country_id": 83,
        "name": "Remse",
        "latitude": "50.85000000",
        "longitude": "12.56667000",
        "is_active": true
    },
    {
        "id": 30040,
        "state_id": 980,
        "country_id": 83,
        "name": "Reuth",
        "latitude": "50.61667000",
        "longitude": "12.21667000",
        "is_active": true
    },
    {
        "id": 30041,
        "state_id": 980,
        "country_id": 83,
        "name": "Riesa",
        "latitude": "51.30777000",
        "longitude": "13.29168000",
        "is_active": true
    },
    {
        "id": 30042,
        "state_id": 980,
        "country_id": 83,
        "name": "Rietschen",
        "latitude": "51.40000000",
        "longitude": "14.78333000",
        "is_active": true
    },
    {
        "id": 30043,
        "state_id": 980,
        "country_id": 83,
        "name": "Rittersgrün",
        "latitude": "50.48031000",
        "longitude": "12.79336000",
        "is_active": true
    },
    {
        "id": 30044,
        "state_id": 980,
        "country_id": 83,
        "name": "Rochlitz",
        "latitude": "51.05007000",
        "longitude": "12.79754000",
        "is_active": true
    },
    {
        "id": 30045,
        "state_id": 980,
        "country_id": 83,
        "name": "Rodewisch",
        "latitude": "50.53083000",
        "longitude": "12.41329000",
        "is_active": true
    },
    {
        "id": 30046,
        "state_id": 980,
        "country_id": 83,
        "name": "Rossau",
        "latitude": "51.00000000",
        "longitude": "13.06667000",
        "is_active": true
    },
    {
        "id": 30047,
        "state_id": 980,
        "country_id": 83,
        "name": "Rothenburg",
        "latitude": "51.33400000",
        "longitude": "14.96874000",
        "is_active": true
    },
    {
        "id": 30048,
        "state_id": 980,
        "country_id": 83,
        "name": "Roßwein",
        "latitude": "51.06589000",
        "longitude": "13.18308000",
        "is_active": true
    },
    {
        "id": 30049,
        "state_id": 980,
        "country_id": 83,
        "name": "Räckelwitz",
        "latitude": "51.25000000",
        "longitude": "14.23333000",
        "is_active": true
    },
    {
        "id": 30050,
        "state_id": 980,
        "country_id": 83,
        "name": "Rötha",
        "latitude": "51.19783000",
        "longitude": "12.41447000",
        "is_active": true
    },
    {
        "id": 30051,
        "state_id": 980,
        "country_id": 83,
        "name": "Sankt Egidien",
        "latitude": "50.78617000",
        "longitude": "12.62395000",
        "is_active": true
    },
    {
        "id": 30052,
        "state_id": 980,
        "country_id": 83,
        "name": "Sayda",
        "latitude": "50.71123000",
        "longitude": "13.42172000",
        "is_active": true
    },
    {
        "id": 30053,
        "state_id": 980,
        "country_id": 83,
        "name": "Scharfenstein",
        "latitude": "50.70405000",
        "longitude": "13.05654000",
        "is_active": true
    },
    {
        "id": 30054,
        "state_id": 980,
        "country_id": 83,
        "name": "Scheibenberg",
        "latitude": "50.54023000",
        "longitude": "12.91215000",
        "is_active": true
    },
    {
        "id": 30055,
        "state_id": 980,
        "country_id": 83,
        "name": "Schildau",
        "latitude": "51.45721000",
        "longitude": "12.93024000",
        "is_active": true
    },
    {
        "id": 30056,
        "state_id": 980,
        "country_id": 83,
        "name": "Schirgiswalde",
        "latitude": "51.07641000",
        "longitude": "14.42834000",
        "is_active": true
    },
    {
        "id": 30057,
        "state_id": 980,
        "country_id": 83,
        "name": "Schkeuditz",
        "latitude": "51.39678000",
        "longitude": "12.22141000",
        "is_active": true
    },
    {
        "id": 30058,
        "state_id": 980,
        "country_id": 83,
        "name": "Schlegel",
        "latitude": "50.97775000",
        "longitude": "14.87686000",
        "is_active": true
    },
    {
        "id": 30059,
        "state_id": 980,
        "country_id": 83,
        "name": "Schleife",
        "latitude": "51.53333000",
        "longitude": "14.53333000",
        "is_active": true
    },
    {
        "id": 30060,
        "state_id": 980,
        "country_id": 83,
        "name": "Schlettau",
        "latitude": "50.55882000",
        "longitude": "12.95269000",
        "is_active": true
    },
    {
        "id": 30061,
        "state_id": 980,
        "country_id": 83,
        "name": "Schmiedeberg",
        "latitude": "50.83644000",
        "longitude": "13.67622000",
        "is_active": true
    },
    {
        "id": 30062,
        "state_id": 980,
        "country_id": 83,
        "name": "Schneeberg",
        "latitude": "50.59465000",
        "longitude": "12.64139000",
        "is_active": true
    },
    {
        "id": 30063,
        "state_id": 980,
        "country_id": 83,
        "name": "Schwarzenberg",
        "latitude": "50.53791000",
        "longitude": "12.78522000",
        "is_active": true
    },
    {
        "id": 30064,
        "state_id": 980,
        "country_id": 83,
        "name": "Schwepnitz",
        "latitude": "51.32809000",
        "longitude": "13.95772000",
        "is_active": true
    },
    {
        "id": 30065,
        "state_id": 980,
        "country_id": 83,
        "name": "Schönau-Berzdorf",
        "latitude": "51.06402000",
        "longitude": "14.88402000",
        "is_active": true
    },
    {
        "id": 30066,
        "state_id": 980,
        "country_id": 83,
        "name": "Schönbach",
        "latitude": "51.06667000",
        "longitude": "14.56667000",
        "is_active": true
    },
    {
        "id": 30067,
        "state_id": 980,
        "country_id": 83,
        "name": "Schönberg",
        "latitude": "50.86752000",
        "longitude": "12.49126000",
        "is_active": true
    },
    {
        "id": 30068,
        "state_id": 980,
        "country_id": 83,
        "name": "Schöneck",
        "latitude": "50.39052000",
        "longitude": "12.32731000",
        "is_active": true
    },
    {
        "id": 30069,
        "state_id": 980,
        "country_id": 83,
        "name": "Schönfeld",
        "latitude": "51.30000000",
        "longitude": "13.70000000",
        "is_active": true
    },
    {
        "id": 30070,
        "state_id": 980,
        "country_id": 83,
        "name": "Schönheide",
        "latitude": "50.50458000",
        "longitude": "12.52158000",
        "is_active": true
    },
    {
        "id": 30071,
        "state_id": 980,
        "country_id": 83,
        "name": "Sebnitz",
        "latitude": "50.97540000",
        "longitude": "14.27579000",
        "is_active": true
    },
    {
        "id": 30072,
        "state_id": 980,
        "country_id": 83,
        "name": "Seelitz",
        "latitude": "51.03333000",
        "longitude": "12.81667000",
        "is_active": true
    },
    {
        "id": 30073,
        "state_id": 980,
        "country_id": 83,
        "name": "Seiffen",
        "latitude": "50.65000000",
        "longitude": "13.45000000",
        "is_active": true
    },
    {
        "id": 30074,
        "state_id": 980,
        "country_id": 83,
        "name": "Seifhennersdorf",
        "latitude": "50.93492000",
        "longitude": "14.60194000",
        "is_active": true
    },
    {
        "id": 30075,
        "state_id": 980,
        "country_id": 83,
        "name": "Sohland",
        "latitude": "51.04089000",
        "longitude": "14.41897000",
        "is_active": true
    },
    {
        "id": 30076,
        "state_id": 980,
        "country_id": 83,
        "name": "Sohland am Rotstein",
        "latitude": "51.11643000",
        "longitude": "14.78372000",
        "is_active": true
    },
    {
        "id": 30077,
        "state_id": 980,
        "country_id": 83,
        "name": "Sosa",
        "latitude": "50.49917000",
        "longitude": "12.65120000",
        "is_active": true
    },
    {
        "id": 30078,
        "state_id": 980,
        "country_id": 83,
        "name": "Stadt Wehlen",
        "latitude": "50.95821000",
        "longitude": "14.03091000",
        "is_active": true
    },
    {
        "id": 30079,
        "state_id": 980,
        "country_id": 83,
        "name": "Stauchitz",
        "latitude": "51.24350000",
        "longitude": "13.21437000",
        "is_active": true
    },
    {
        "id": 30080,
        "state_id": 980,
        "country_id": 83,
        "name": "Steina",
        "latitude": "51.20000000",
        "longitude": "14.05000000",
        "is_active": true
    },
    {
        "id": 30081,
        "state_id": 980,
        "country_id": 83,
        "name": "Steinigtwolmsdorf",
        "latitude": "51.06314000",
        "longitude": "14.34540000",
        "is_active": true
    },
    {
        "id": 30082,
        "state_id": 980,
        "country_id": 83,
        "name": "Stollberg",
        "latitude": "50.70999000",
        "longitude": "12.78034000",
        "is_active": true
    },
    {
        "id": 30083,
        "state_id": 980,
        "country_id": 83,
        "name": "Stolpen",
        "latitude": "51.04901000",
        "longitude": "14.07943000",
        "is_active": true
    },
    {
        "id": 30084,
        "state_id": 980,
        "country_id": 83,
        "name": "Strehla",
        "latitude": "51.35248000",
        "longitude": "13.22660000",
        "is_active": true
    },
    {
        "id": 30085,
        "state_id": 980,
        "country_id": 83,
        "name": "Struppen",
        "latitude": "50.93333000",
        "longitude": "14.01667000",
        "is_active": true
    },
    {
        "id": 30086,
        "state_id": 980,
        "country_id": 83,
        "name": "Stützengrün",
        "latitude": "50.53333000",
        "longitude": "12.53333000",
        "is_active": true
    },
    {
        "id": 30087,
        "state_id": 980,
        "country_id": 83,
        "name": "Syrau",
        "latitude": "50.54297000",
        "longitude": "12.07933000",
        "is_active": true
    },
    {
        "id": 30088,
        "state_id": 980,
        "country_id": 83,
        "name": "Tannenberg",
        "latitude": "50.60738000",
        "longitude": "12.93798000",
        "is_active": true
    },
    {
        "id": 30089,
        "state_id": 980,
        "country_id": 83,
        "name": "Tannenbergsthal",
        "latitude": "50.43665000",
        "longitude": "12.45754000",
        "is_active": true
    },
    {
        "id": 30090,
        "state_id": 980,
        "country_id": 83,
        "name": "Taucha",
        "latitude": "51.38333000",
        "longitude": "12.48333000",
        "is_active": true
    },
    {
        "id": 30091,
        "state_id": 980,
        "country_id": 83,
        "name": "Taura",
        "latitude": "50.91667000",
        "longitude": "12.85000000",
        "is_active": true
    },
    {
        "id": 30092,
        "state_id": 980,
        "country_id": 83,
        "name": "Tauscha",
        "latitude": "51.26667000",
        "longitude": "13.80000000",
        "is_active": true
    },
    {
        "id": 30093,
        "state_id": 980,
        "country_id": 83,
        "name": "Thalheim",
        "latitude": "50.70077000",
        "longitude": "12.84996000",
        "is_active": true
    },
    {
        "id": 30094,
        "state_id": 980,
        "country_id": 83,
        "name": "Thallwitz",
        "latitude": "51.43333000",
        "longitude": "12.68333000",
        "is_active": true
    },
    {
        "id": 30095,
        "state_id": 980,
        "country_id": 83,
        "name": "Tharandt",
        "latitude": "50.98525000",
        "longitude": "13.58035000",
        "is_active": true
    },
    {
        "id": 30096,
        "state_id": 980,
        "country_id": 83,
        "name": "Theuma",
        "latitude": "50.47007000",
        "longitude": "12.22195000",
        "is_active": true
    },
    {
        "id": 30097,
        "state_id": 980,
        "country_id": 83,
        "name": "Thiendorf",
        "latitude": "51.29375000",
        "longitude": "13.74124000",
        "is_active": true
    },
    {
        "id": 30098,
        "state_id": 980,
        "country_id": 83,
        "name": "Thum",
        "latitude": "50.67081000",
        "longitude": "12.95091000",
        "is_active": true
    },
    {
        "id": 30099,
        "state_id": 980,
        "country_id": 83,
        "name": "Tirpersdorf",
        "latitude": "50.43333000",
        "longitude": "12.25000000",
        "is_active": true
    },
    {
        "id": 30100,
        "state_id": 980,
        "country_id": 83,
        "name": "Torgau",
        "latitude": "51.56016000",
        "longitude": "12.99617000",
        "is_active": true
    },
    {
        "id": 30101,
        "state_id": 980,
        "country_id": 83,
        "name": "Trebendorf",
        "latitude": "51.53333000",
        "longitude": "14.56667000",
        "is_active": true
    },
    {
        "id": 30102,
        "state_id": 980,
        "country_id": 83,
        "name": "Trebsen",
        "latitude": "51.28898000",
        "longitude": "12.75496000",
        "is_active": true
    },
    {
        "id": 30103,
        "state_id": 980,
        "country_id": 83,
        "name": "Treuen",
        "latitude": "50.54247000",
        "longitude": "12.30339000",
        "is_active": true
    },
    {
        "id": 30104,
        "state_id": 980,
        "country_id": 83,
        "name": "Triebel",
        "latitude": "50.37153000",
        "longitude": "12.12118000",
        "is_active": true
    },
    {
        "id": 30105,
        "state_id": 980,
        "country_id": 83,
        "name": "Trossin",
        "latitude": "51.61667000",
        "longitude": "12.81667000",
        "is_active": true
    },
    {
        "id": 30106,
        "state_id": 980,
        "country_id": 83,
        "name": "Uhyst",
        "latitude": "51.36469000",
        "longitude": "14.50600000",
        "is_active": true
    },
    {
        "id": 30107,
        "state_id": 980,
        "country_id": 83,
        "name": "Venusberg",
        "latitude": "50.69918000",
        "longitude": "13.01854000",
        "is_active": true
    },
    {
        "id": 30108,
        "state_id": 980,
        "country_id": 83,
        "name": "Wachau",
        "latitude": "51.16172000",
        "longitude": "13.90651000",
        "is_active": true
    },
    {
        "id": 30109,
        "state_id": 980,
        "country_id": 83,
        "name": "Waldenburg",
        "latitude": "50.87653000",
        "longitude": "12.59919000",
        "is_active": true
    },
    {
        "id": 30110,
        "state_id": 980,
        "country_id": 83,
        "name": "Waldheim",
        "latitude": "51.07282000",
        "longitude": "13.02004000",
        "is_active": true
    },
    {
        "id": 30111,
        "state_id": 980,
        "country_id": 83,
        "name": "Waldkirchen",
        "latitude": "50.59667000",
        "longitude": "12.37994000",
        "is_active": true
    },
    {
        "id": 30112,
        "state_id": 980,
        "country_id": 83,
        "name": "Wechselburg",
        "latitude": "51.00214000",
        "longitude": "12.77661000",
        "is_active": true
    },
    {
        "id": 30113,
        "state_id": 980,
        "country_id": 83,
        "name": "Weinböhla",
        "latitude": "51.16667000",
        "longitude": "13.56667000",
        "is_active": true
    },
    {
        "id": 30114,
        "state_id": 980,
        "country_id": 83,
        "name": "Weischlitz",
        "latitude": "50.45000000",
        "longitude": "12.06667000",
        "is_active": true
    },
    {
        "id": 30115,
        "state_id": 980,
        "country_id": 83,
        "name": "Weißenberg",
        "latitude": "51.19644000",
        "longitude": "14.65874000",
        "is_active": true
    },
    {
        "id": 30116,
        "state_id": 980,
        "country_id": 83,
        "name": "Weißenborn",
        "latitude": "50.73952000",
        "longitude": "12.47051000",
        "is_active": true
    },
    {
        "id": 30117,
        "state_id": 980,
        "country_id": 83,
        "name": "Weißig",
        "latitude": "51.29192000",
        "longitude": "13.44117000",
        "is_active": true
    },
    {
        "id": 30118,
        "state_id": 980,
        "country_id": 83,
        "name": "Weißkeißel",
        "latitude": "51.49405000",
        "longitude": "14.71515000",
        "is_active": true
    },
    {
        "id": 30119,
        "state_id": 980,
        "country_id": 83,
        "name": "Weißwasser",
        "latitude": "51.50403000",
        "longitude": "14.64017000",
        "is_active": true
    },
    {
        "id": 30120,
        "state_id": 980,
        "country_id": 83,
        "name": "Werda",
        "latitude": "50.43811000",
        "longitude": "12.30473000",
        "is_active": true
    },
    {
        "id": 30121,
        "state_id": 980,
        "country_id": 83,
        "name": "Werdau",
        "latitude": "50.73604000",
        "longitude": "12.37534000",
        "is_active": true
    },
    {
        "id": 30122,
        "state_id": 980,
        "country_id": 83,
        "name": "Wermsdorf",
        "latitude": "51.28333000",
        "longitude": "12.95000000",
        "is_active": true
    },
    {
        "id": 30123,
        "state_id": 980,
        "country_id": 83,
        "name": "Wiedemar",
        "latitude": "51.46667000",
        "longitude": "12.20000000",
        "is_active": true
    },
    {
        "id": 30124,
        "state_id": 980,
        "country_id": 83,
        "name": "Wiednitz",
        "latitude": "51.38608000",
        "longitude": "14.02683000",
        "is_active": true
    },
    {
        "id": 30125,
        "state_id": 980,
        "country_id": 83,
        "name": "Wiesa",
        "latitude": "50.61114000",
        "longitude": "13.01377000",
        "is_active": true
    },
    {
        "id": 30126,
        "state_id": 980,
        "country_id": 83,
        "name": "Wildenfels",
        "latitude": "50.66784000",
        "longitude": "12.60886000",
        "is_active": true
    },
    {
        "id": 30127,
        "state_id": 980,
        "country_id": 83,
        "name": "Wildenhain",
        "latitude": "51.30760000",
        "longitude": "13.47678000",
        "is_active": true
    },
    {
        "id": 30128,
        "state_id": 980,
        "country_id": 83,
        "name": "Wilkau-Haßlau",
        "latitude": "50.67504000",
        "longitude": "12.51482000",
        "is_active": true
    },
    {
        "id": 30129,
        "state_id": 980,
        "country_id": 83,
        "name": "Wilsdruff",
        "latitude": "51.05199000",
        "longitude": "13.53657000",
        "is_active": true
    },
    {
        "id": 30130,
        "state_id": 980,
        "country_id": 83,
        "name": "Wilthen",
        "latitude": "51.09745000",
        "longitude": "14.39290000",
        "is_active": true
    },
    {
        "id": 30131,
        "state_id": 980,
        "country_id": 83,
        "name": "Wittgensdorf",
        "latitude": "50.88316000",
        "longitude": "12.87031000",
        "is_active": true
    },
    {
        "id": 30132,
        "state_id": 980,
        "country_id": 83,
        "name": "Wittichenau",
        "latitude": "51.38496000",
        "longitude": "14.24403000",
        "is_active": true
    },
    {
        "id": 30133,
        "state_id": 980,
        "country_id": 83,
        "name": "Wolkenstein",
        "latitude": "50.65552000",
        "longitude": "13.07132000",
        "is_active": true
    },
    {
        "id": 30134,
        "state_id": 980,
        "country_id": 83,
        "name": "Wurzen",
        "latitude": "51.37070000",
        "longitude": "12.73939000",
        "is_active": true
    },
    {
        "id": 30135,
        "state_id": 980,
        "country_id": 83,
        "name": "Wülknitz",
        "latitude": "51.36667000",
        "longitude": "13.40000000",
        "is_active": true
    },
    {
        "id": 30136,
        "state_id": 980,
        "country_id": 83,
        "name": "Zabeltitz",
        "latitude": "51.35147000",
        "longitude": "13.50462000",
        "is_active": true
    },
    {
        "id": 30137,
        "state_id": 980,
        "country_id": 83,
        "name": "Zeithain",
        "latitude": "51.33356000",
        "longitude": "13.33809000",
        "is_active": true
    },
    {
        "id": 30138,
        "state_id": 980,
        "country_id": 83,
        "name": "Zinna",
        "latitude": "51.56790000",
        "longitude": "12.95354000",
        "is_active": true
    },
    {
        "id": 30139,
        "state_id": 980,
        "country_id": 83,
        "name": "Zittau",
        "latitude": "50.89772000",
        "longitude": "14.80764000",
        "is_active": true
    },
    {
        "id": 30140,
        "state_id": 980,
        "country_id": 83,
        "name": "Zschadrass",
        "latitude": "51.13828000",
        "longitude": "12.81848000",
        "is_active": true
    },
    {
        "id": 30141,
        "state_id": 980,
        "country_id": 83,
        "name": "Zschepplin",
        "latitude": "51.50000000",
        "longitude": "12.60000000",
        "is_active": true
    },
    {
        "id": 30142,
        "state_id": 980,
        "country_id": 83,
        "name": "Zschopau",
        "latitude": "50.74818000",
        "longitude": "13.07691000",
        "is_active": true
    },
    {
        "id": 30143,
        "state_id": 980,
        "country_id": 83,
        "name": "Zschorlau",
        "latitude": "50.56667000",
        "longitude": "12.65000000",
        "is_active": true
    },
    {
        "id": 30144,
        "state_id": 980,
        "country_id": 83,
        "name": "Zschortau",
        "latitude": "51.47930000",
        "longitude": "12.35893000",
        "is_active": true
    },
    {
        "id": 30145,
        "state_id": 980,
        "country_id": 83,
        "name": "Zwenkau",
        "latitude": "51.21872000",
        "longitude": "12.33008000",
        "is_active": true
    },
    {
        "id": 30146,
        "state_id": 980,
        "country_id": 83,
        "name": "Zwickau",
        "latitude": "50.72724000",
        "longitude": "12.48839000",
        "is_active": true
    },
    {
        "id": 30147,
        "state_id": 980,
        "country_id": 83,
        "name": "Zwochau",
        "latitude": "51.46467000",
        "longitude": "12.26844000",
        "is_active": true
    },
    {
        "id": 30148,
        "state_id": 980,
        "country_id": 83,
        "name": "Zwota",
        "latitude": "50.35103000",
        "longitude": "12.42241000",
        "is_active": true
    },
    {
        "id": 30149,
        "state_id": 980,
        "country_id": 83,
        "name": "Zwönitz",
        "latitude": "50.63027000",
        "longitude": "12.80999000",
        "is_active": true
    },
    {
        "id": 30150,
        "state_id": 980,
        "country_id": 83,
        "name": "Zöblitz",
        "latitude": "50.65912000",
        "longitude": "13.22981000",
        "is_active": true
    },
    {
        "id": 30151,
        "state_id": 981,
        "country_id": 83,
        "name": "Abtsdorf",
        "latitude": "51.88984000",
        "longitude": "12.72526000",
        "is_active": true
    },
    {
        "id": 30152,
        "state_id": 981,
        "country_id": 83,
        "name": "Ahlsdorf",
        "latitude": "51.54543000",
        "longitude": "11.46655000",
        "is_active": true
    },
    {
        "id": 30153,
        "state_id": 981,
        "country_id": 83,
        "name": "Aken",
        "latitude": "51.85274000",
        "longitude": "12.04461000",
        "is_active": true
    },
    {
        "id": 30154,
        "state_id": 981,
        "country_id": 83,
        "name": "Allstedt",
        "latitude": "51.40379000",
        "longitude": "11.38689000",
        "is_active": true
    },
    {
        "id": 30155,
        "state_id": 981,
        "country_id": 83,
        "name": "Alsleben",
        "latitude": "51.70161000",
        "longitude": "11.67648000",
        "is_active": true
    },
    {
        "id": 30156,
        "state_id": 981,
        "country_id": 83,
        "name": "Angern",
        "latitude": "52.35000000",
        "longitude": "11.73333000",
        "is_active": true
    },
    {
        "id": 30157,
        "state_id": 981,
        "country_id": 83,
        "name": "Angersdorf",
        "latitude": "51.46025000",
        "longitude": "11.90705000",
        "is_active": true
    },
    {
        "id": 30158,
        "state_id": 981,
        "country_id": 83,
        "name": "Annaburg",
        "latitude": "51.73298000",
        "longitude": "13.04729000",
        "is_active": true
    },
    {
        "id": 30159,
        "state_id": 981,
        "country_id": 83,
        "name": "Apollensdorf",
        "latitude": "51.87634000",
        "longitude": "12.55012000",
        "is_active": true
    },
    {
        "id": 30160,
        "state_id": 981,
        "country_id": 83,
        "name": "Arneburg",
        "latitude": "52.67565000",
        "longitude": "12.00514000",
        "is_active": true
    },
    {
        "id": 30161,
        "state_id": 981,
        "country_id": 83,
        "name": "Aschersleben",
        "latitude": "51.75742000",
        "longitude": "11.46084000",
        "is_active": true
    },
    {
        "id": 30162,
        "state_id": 981,
        "country_id": 83,
        "name": "Atzendorf",
        "latitude": "51.91954000",
        "longitude": "11.59906000",
        "is_active": true
    },
    {
        "id": 30163,
        "state_id": 981,
        "country_id": 83,
        "name": "Ausleben",
        "latitude": "52.09049000",
        "longitude": "11.11192000",
        "is_active": true
    },
    {
        "id": 30164,
        "state_id": 981,
        "country_id": 83,
        "name": "Baalberge",
        "latitude": "51.76469000",
        "longitude": "11.79880000",
        "is_active": true
    },
    {
        "id": 30165,
        "state_id": 981,
        "country_id": 83,
        "name": "Bad Bibra",
        "latitude": "51.20796000",
        "longitude": "11.58517000",
        "is_active": true
    },
    {
        "id": 30166,
        "state_id": 981,
        "country_id": 83,
        "name": "Bad Dürrenberg",
        "latitude": "51.29545000",
        "longitude": "12.06583000",
        "is_active": true
    },
    {
        "id": 30167,
        "state_id": 981,
        "country_id": 83,
        "name": "Bad Kösen",
        "latitude": "51.13431000",
        "longitude": "11.72203000",
        "is_active": true
    },
    {
        "id": 30168,
        "state_id": 981,
        "country_id": 83,
        "name": "Bad Lauchstädt",
        "latitude": "51.38652000",
        "longitude": "11.86956000",
        "is_active": true
    },
    {
        "id": 30169,
        "state_id": 981,
        "country_id": 83,
        "name": "Bad Schmiedeberg",
        "latitude": "51.68516000",
        "longitude": "12.73483000",
        "is_active": true
    },
    {
        "id": 30170,
        "state_id": 981,
        "country_id": 83,
        "name": "Bad Suderode",
        "latitude": "51.73333000",
        "longitude": "11.11667000",
        "is_active": true
    },
    {
        "id": 30171,
        "state_id": 981,
        "country_id": 83,
        "name": "Ballenstedt",
        "latitude": "51.71900000",
        "longitude": "11.23265000",
        "is_active": true
    },
    {
        "id": 30172,
        "state_id": 981,
        "country_id": 83,
        "name": "Barby",
        "latitude": "51.96711000",
        "longitude": "11.88261000",
        "is_active": true
    },
    {
        "id": 30173,
        "state_id": 981,
        "country_id": 83,
        "name": "Barleben",
        "latitude": "52.20193000",
        "longitude": "11.61770000",
        "is_active": true
    },
    {
        "id": 30174,
        "state_id": 981,
        "country_id": 83,
        "name": "Barnstädt",
        "latitude": "51.34401000",
        "longitude": "11.63735000",
        "is_active": true
    },
    {
        "id": 30175,
        "state_id": 981,
        "country_id": 83,
        "name": "Beesenlaublingen",
        "latitude": "51.71274000",
        "longitude": "11.69729000",
        "is_active": true
    },
    {
        "id": 30176,
        "state_id": 981,
        "country_id": 83,
        "name": "Beesenstedt",
        "latitude": "51.56828000",
        "longitude": "11.73323000",
        "is_active": true
    },
    {
        "id": 30177,
        "state_id": 981,
        "country_id": 83,
        "name": "Beetzendorf",
        "latitude": "52.70226000",
        "longitude": "11.08890000",
        "is_active": true
    },
    {
        "id": 30178,
        "state_id": 981,
        "country_id": 83,
        "name": "Belleben",
        "latitude": "51.67499000",
        "longitude": "11.63420000",
        "is_active": true
    },
    {
        "id": 30179,
        "state_id": 981,
        "country_id": 83,
        "name": "Benndorf",
        "latitude": "51.57035000",
        "longitude": "11.49290000",
        "is_active": true
    },
    {
        "id": 30180,
        "state_id": 981,
        "country_id": 83,
        "name": "Benneckenstein",
        "latitude": "51.66823000",
        "longitude": "10.71716000",
        "is_active": true
    },
    {
        "id": 30181,
        "state_id": 981,
        "country_id": 83,
        "name": "Bennstedt",
        "latitude": "51.48201000",
        "longitude": "11.82620000",
        "is_active": true
    },
    {
        "id": 30182,
        "state_id": 981,
        "country_id": 83,
        "name": "Bennungen",
        "latitude": "51.46085000",
        "longitude": "11.11816000",
        "is_active": true
    },
    {
        "id": 30183,
        "state_id": 981,
        "country_id": 83,
        "name": "Berga",
        "latitude": "51.45561000",
        "longitude": "11.00710000",
        "is_active": true
    },
    {
        "id": 30184,
        "state_id": 981,
        "country_id": 83,
        "name": "Bergwitz",
        "latitude": "51.79479000",
        "longitude": "12.58954000",
        "is_active": true
    },
    {
        "id": 30185,
        "state_id": 981,
        "country_id": 83,
        "name": "Bernburg",
        "latitude": "51.79464000",
        "longitude": "11.74010000",
        "is_active": true
    },
    {
        "id": 30186,
        "state_id": 981,
        "country_id": 83,
        "name": "Beuna",
        "latitude": "51.31667000",
        "longitude": "11.95000000",
        "is_active": true
    },
    {
        "id": 30187,
        "state_id": 981,
        "country_id": 83,
        "name": "Biederitz",
        "latitude": "52.15000000",
        "longitude": "11.71667000",
        "is_active": true
    },
    {
        "id": 30188,
        "state_id": 981,
        "country_id": 83,
        "name": "Biere",
        "latitude": "51.97431000",
        "longitude": "11.65443000",
        "is_active": true
    },
    {
        "id": 30189,
        "state_id": 981,
        "country_id": 83,
        "name": "Bismark",
        "latitude": "52.66195000",
        "longitude": "11.55638000",
        "is_active": true
    },
    {
        "id": 30190,
        "state_id": 981,
        "country_id": 83,
        "name": "Bitterfeld-Wolfen",
        "latitude": "51.62355000",
        "longitude": "12.32395000",
        "is_active": true
    },
    {
        "id": 30191,
        "state_id": 981,
        "country_id": 83,
        "name": "Blankenburg",
        "latitude": "51.79025000",
        "longitude": "10.95509000",
        "is_active": true
    },
    {
        "id": 30192,
        "state_id": 981,
        "country_id": 83,
        "name": "Blankenheim",
        "latitude": "51.50717000",
        "longitude": "11.42878000",
        "is_active": true
    },
    {
        "id": 30193,
        "state_id": 981,
        "country_id": 83,
        "name": "Bobbau",
        "latitude": "51.68747000",
        "longitude": "12.27253000",
        "is_active": true
    },
    {
        "id": 30194,
        "state_id": 981,
        "country_id": 83,
        "name": "Borne",
        "latitude": "51.94881000",
        "longitude": "11.55865000",
        "is_active": true
    },
    {
        "id": 30195,
        "state_id": 981,
        "country_id": 83,
        "name": "Braschwitz",
        "latitude": "51.52284000",
        "longitude": "12.05867000",
        "is_active": true
    },
    {
        "id": 30196,
        "state_id": 981,
        "country_id": 83,
        "name": "Braunsbedra",
        "latitude": "51.28602000",
        "longitude": "11.88987000",
        "is_active": true
    },
    {
        "id": 30197,
        "state_id": 981,
        "country_id": 83,
        "name": "Brehna",
        "latitude": "51.55790000",
        "longitude": "12.21276000",
        "is_active": true
    },
    {
        "id": 30198,
        "state_id": 981,
        "country_id": 83,
        "name": "Brumby",
        "latitude": "51.89635000",
        "longitude": "11.71751000",
        "is_active": true
    },
    {
        "id": 30199,
        "state_id": 981,
        "country_id": 83,
        "name": "Burg bei Magdeburg",
        "latitude": "52.27152000",
        "longitude": "11.85493000",
        "is_active": true
    },
    {
        "id": 30200,
        "state_id": 981,
        "country_id": 83,
        "name": "Burgwerben",
        "latitude": "51.22270000",
        "longitude": "11.98396000",
        "is_active": true
    },
    {
        "id": 30201,
        "state_id": 981,
        "country_id": 83,
        "name": "Calbe",
        "latitude": "51.90668000",
        "longitude": "11.77478000",
        "is_active": true
    },
    {
        "id": 30202,
        "state_id": 981,
        "country_id": 83,
        "name": "Calvörde",
        "latitude": "52.39551000",
        "longitude": "11.29463000",
        "is_active": true
    },
    {
        "id": 30203,
        "state_id": 981,
        "country_id": 83,
        "name": "Cochstedt",
        "latitude": "51.88247000",
        "longitude": "11.41085000",
        "is_active": true
    },
    {
        "id": 30204,
        "state_id": 981,
        "country_id": 83,
        "name": "Colbitz",
        "latitude": "52.31708000",
        "longitude": "11.60534000",
        "is_active": true
    },
    {
        "id": 30205,
        "state_id": 981,
        "country_id": 83,
        "name": "Coswig",
        "latitude": "51.88618000",
        "longitude": "12.45009000",
        "is_active": true
    },
    {
        "id": 30206,
        "state_id": 981,
        "country_id": 83,
        "name": "Dahlenwarsleben",
        "latitude": "52.19519000",
        "longitude": "11.53736000",
        "is_active": true
    },
    {
        "id": 30207,
        "state_id": 981,
        "country_id": 83,
        "name": "Darlingerode",
        "latitude": "51.84712000",
        "longitude": "10.73097000",
        "is_active": true
    },
    {
        "id": 30208,
        "state_id": 981,
        "country_id": 83,
        "name": "Derenburg",
        "latitude": "51.87086000",
        "longitude": "10.91029000",
        "is_active": true
    },
    {
        "id": 30209,
        "state_id": 981,
        "country_id": 83,
        "name": "Dessau",
        "latitude": "51.83864000",
        "longitude": "12.24555000",
        "is_active": true
    },
    {
        "id": 30210,
        "state_id": 981,
        "country_id": 83,
        "name": "Deuben",
        "latitude": "51.10968000",
        "longitude": "12.07259000",
        "is_active": true
    },
    {
        "id": 30211,
        "state_id": 981,
        "country_id": 83,
        "name": "Diesdorf",
        "latitude": "52.13075000",
        "longitude": "11.56483000",
        "is_active": true
    },
    {
        "id": 30212,
        "state_id": 981,
        "country_id": 83,
        "name": "Dieskau",
        "latitude": "51.43553000",
        "longitude": "12.04035000",
        "is_active": true
    },
    {
        "id": 30213,
        "state_id": 981,
        "country_id": 83,
        "name": "Ditfurt",
        "latitude": "51.83333000",
        "longitude": "11.20000000",
        "is_active": true
    },
    {
        "id": 30214,
        "state_id": 981,
        "country_id": 83,
        "name": "Dobien",
        "latitude": "51.90519000",
        "longitude": "12.61068000",
        "is_active": true
    },
    {
        "id": 30215,
        "state_id": 981,
        "country_id": 83,
        "name": "Domersleben",
        "latitude": "52.09199000",
        "longitude": "11.43757000",
        "is_active": true
    },
    {
        "id": 30216,
        "state_id": 981,
        "country_id": 83,
        "name": "Droyßig",
        "latitude": "51.04247000",
        "longitude": "12.02590000",
        "is_active": true
    },
    {
        "id": 30217,
        "state_id": 981,
        "country_id": 83,
        "name": "Drübeck",
        "latitude": "51.85820000",
        "longitude": "10.71839000",
        "is_active": true
    },
    {
        "id": 30218,
        "state_id": 981,
        "country_id": 83,
        "name": "Dölbau",
        "latitude": "51.46701000",
        "longitude": "12.05735000",
        "is_active": true
    },
    {
        "id": 30219,
        "state_id": 981,
        "country_id": 83,
        "name": "Döllnitz",
        "latitude": "51.40777000",
        "longitude": "12.02831000",
        "is_active": true
    },
    {
        "id": 30220,
        "state_id": 981,
        "country_id": 83,
        "name": "Ebendorf",
        "latitude": "52.18551000",
        "longitude": "11.57478000",
        "is_active": true
    },
    {
        "id": 30221,
        "state_id": 981,
        "country_id": 83,
        "name": "Eckartsberga",
        "latitude": "51.12380000",
        "longitude": "11.56045000",
        "is_active": true
    },
    {
        "id": 30222,
        "state_id": 981,
        "country_id": 83,
        "name": "Edderitz",
        "latitude": "51.69933000",
        "longitude": "11.93712000",
        "is_active": true
    },
    {
        "id": 30223,
        "state_id": 981,
        "country_id": 83,
        "name": "Edersleben",
        "latitude": "51.41667000",
        "longitude": "11.28333000",
        "is_active": true
    },
    {
        "id": 30224,
        "state_id": 981,
        "country_id": 83,
        "name": "Egeln",
        "latitude": "51.94384000",
        "longitude": "11.43265000",
        "is_active": true
    },
    {
        "id": 30225,
        "state_id": 981,
        "country_id": 83,
        "name": "Eggersdorf",
        "latitude": "51.97621000",
        "longitude": "11.70971000",
        "is_active": true
    },
    {
        "id": 30226,
        "state_id": 981,
        "country_id": 83,
        "name": "Eichenbarleben",
        "latitude": "52.16688000",
        "longitude": "11.40125000",
        "is_active": true
    },
    {
        "id": 30227,
        "state_id": 981,
        "country_id": 83,
        "name": "Eickendorf",
        "latitude": "51.94765000",
        "longitude": "11.67538000",
        "is_active": true
    },
    {
        "id": 30228,
        "state_id": 981,
        "country_id": 83,
        "name": "Eilsleben",
        "latitude": "52.14708000",
        "longitude": "11.21035000",
        "is_active": true
    },
    {
        "id": 30229,
        "state_id": 981,
        "country_id": 83,
        "name": "Eisleben Lutherstadt",
        "latitude": "51.52754000",
        "longitude": "11.54835000",
        "is_active": true
    },
    {
        "id": 30230,
        "state_id": 981,
        "country_id": 83,
        "name": "Elbingerode",
        "latitude": "51.77039000",
        "longitude": "10.80557000",
        "is_active": true
    },
    {
        "id": 30231,
        "state_id": 981,
        "country_id": 83,
        "name": "Elster",
        "latitude": "51.83011000",
        "longitude": "12.82424000",
        "is_active": true
    },
    {
        "id": 30232,
        "state_id": 981,
        "country_id": 83,
        "name": "Erdeborn",
        "latitude": "51.47554000",
        "longitude": "11.63487000",
        "is_active": true
    },
    {
        "id": 30233,
        "state_id": 981,
        "country_id": 83,
        "name": "Ermlitz",
        "latitude": "51.39182000",
        "longitude": "12.15946000",
        "is_active": true
    },
    {
        "id": 30234,
        "state_id": 981,
        "country_id": 83,
        "name": "Erxleben",
        "latitude": "52.21812000",
        "longitude": "11.24245000",
        "is_active": true
    },
    {
        "id": 30235,
        "state_id": 981,
        "country_id": 83,
        "name": "Farnstädt",
        "latitude": "51.43333000",
        "longitude": "11.56667000",
        "is_active": true
    },
    {
        "id": 30236,
        "state_id": 981,
        "country_id": 83,
        "name": "Flechtingen",
        "latitude": "52.33083000",
        "longitude": "11.24176000",
        "is_active": true
    },
    {
        "id": 30237,
        "state_id": 981,
        "country_id": 83,
        "name": "Flessau",
        "latitude": "52.75996000",
        "longitude": "11.67093000",
        "is_active": true
    },
    {
        "id": 30238,
        "state_id": 981,
        "country_id": 83,
        "name": "Frankleben",
        "latitude": "51.31144000",
        "longitude": "11.92932000",
        "is_active": true
    },
    {
        "id": 30239,
        "state_id": 981,
        "country_id": 83,
        "name": "Freyburg",
        "latitude": "51.21362000",
        "longitude": "11.76804000",
        "is_active": true
    },
    {
        "id": 30240,
        "state_id": 981,
        "country_id": 83,
        "name": "Friedersdorf",
        "latitude": "51.64809000",
        "longitude": "12.36555000",
        "is_active": true
    },
    {
        "id": 30241,
        "state_id": 981,
        "country_id": 83,
        "name": "Friedrichsbrunn",
        "latitude": "51.69028000",
        "longitude": "11.03737000",
        "is_active": true
    },
    {
        "id": 30242,
        "state_id": 981,
        "country_id": 83,
        "name": "Friedrichstadt",
        "latitude": "51.88751000",
        "longitude": "12.66947000",
        "is_active": true
    },
    {
        "id": 30243,
        "state_id": 981,
        "country_id": 83,
        "name": "Frose",
        "latitude": "51.79581000",
        "longitude": "11.37914000",
        "is_active": true
    },
    {
        "id": 30244,
        "state_id": 981,
        "country_id": 83,
        "name": "Förderstedt",
        "latitude": "51.89717000",
        "longitude": "11.63349000",
        "is_active": true
    },
    {
        "id": 30245,
        "state_id": 981,
        "country_id": 83,
        "name": "Gardelegen",
        "latitude": "52.52520000",
        "longitude": "11.39523000",
        "is_active": true
    },
    {
        "id": 30246,
        "state_id": 981,
        "country_id": 83,
        "name": "Gatersleben",
        "latitude": "51.82215000",
        "longitude": "11.28661000",
        "is_active": true
    },
    {
        "id": 30247,
        "state_id": 981,
        "country_id": 83,
        "name": "Genthin",
        "latitude": "52.40668000",
        "longitude": "12.15920000",
        "is_active": true
    },
    {
        "id": 30248,
        "state_id": 981,
        "country_id": 83,
        "name": "Gerbstedt",
        "latitude": "51.63281000",
        "longitude": "11.62669000",
        "is_active": true
    },
    {
        "id": 30249,
        "state_id": 981,
        "country_id": 83,
        "name": "Gernrode",
        "latitude": "51.72575000",
        "longitude": "11.13876000",
        "is_active": true
    },
    {
        "id": 30250,
        "state_id": 981,
        "country_id": 83,
        "name": "Gerwisch",
        "latitude": "52.17662000",
        "longitude": "11.73972000",
        "is_active": true
    },
    {
        "id": 30251,
        "state_id": 981,
        "country_id": 83,
        "name": "Geusa",
        "latitude": "51.33914000",
        "longitude": "11.94382000",
        "is_active": true
    },
    {
        "id": 30252,
        "state_id": 981,
        "country_id": 83,
        "name": "Giersleben",
        "latitude": "51.76667000",
        "longitude": "11.56667000",
        "is_active": true
    },
    {
        "id": 30253,
        "state_id": 981,
        "country_id": 83,
        "name": "Glindenberg",
        "latitude": "52.23857000",
        "longitude": "11.68361000",
        "is_active": true
    },
    {
        "id": 30254,
        "state_id": 981,
        "country_id": 83,
        "name": "Glöthe",
        "latitude": "51.91000000",
        "longitude": "11.67471000",
        "is_active": true
    },
    {
        "id": 30255,
        "state_id": 981,
        "country_id": 83,
        "name": "Goldbeck",
        "latitude": "52.71695000",
        "longitude": "11.86060000",
        "is_active": true
    },
    {
        "id": 30256,
        "state_id": 981,
        "country_id": 83,
        "name": "Gommern",
        "latitude": "52.07391000",
        "longitude": "11.82297000",
        "is_active": true
    },
    {
        "id": 30257,
        "state_id": 981,
        "country_id": 83,
        "name": "Goseck",
        "latitude": "51.20000000",
        "longitude": "11.86667000",
        "is_active": true
    },
    {
        "id": 30258,
        "state_id": 981,
        "country_id": 83,
        "name": "Granschütz",
        "latitude": "51.18431000",
        "longitude": "12.05149000",
        "is_active": true
    },
    {
        "id": 30259,
        "state_id": 981,
        "country_id": 83,
        "name": "Greppin",
        "latitude": "51.64682000",
        "longitude": "12.30066000",
        "is_active": true
    },
    {
        "id": 30260,
        "state_id": 981,
        "country_id": 83,
        "name": "Groß Ammensleben",
        "latitude": "52.23279000",
        "longitude": "11.52195000",
        "is_active": true
    },
    {
        "id": 30261,
        "state_id": 981,
        "country_id": 83,
        "name": "Groß Börnecke",
        "latitude": "51.88468000",
        "longitude": "11.47032000",
        "is_active": true
    },
    {
        "id": 30262,
        "state_id": 981,
        "country_id": 83,
        "name": "Groß Quenstedt",
        "latitude": "51.93333000",
        "longitude": "11.11667000",
        "is_active": true
    },
    {
        "id": 30263,
        "state_id": 981,
        "country_id": 83,
        "name": "Groß Rodensleben",
        "latitude": "52.12139000",
        "longitude": "11.38367000",
        "is_active": true
    },
    {
        "id": 30264,
        "state_id": 981,
        "country_id": 83,
        "name": "Groß Rosenburg",
        "latitude": "51.91696000",
        "longitude": "11.89184000",
        "is_active": true
    },
    {
        "id": 30265,
        "state_id": 981,
        "country_id": 83,
        "name": "Groß Santersleben",
        "latitude": "52.19143000",
        "longitude": "11.45486000",
        "is_active": true
    },
    {
        "id": 30266,
        "state_id": 981,
        "country_id": 83,
        "name": "Großkayna",
        "latitude": "51.29068000",
        "longitude": "11.93269000",
        "is_active": true
    },
    {
        "id": 30267,
        "state_id": 981,
        "country_id": 83,
        "name": "Großkorbetha",
        "latitude": "51.26002000",
        "longitude": "12.03012000",
        "is_active": true
    },
    {
        "id": 30268,
        "state_id": 981,
        "country_id": 83,
        "name": "Großkugel",
        "latitude": "51.41728000",
        "longitude": "12.14641000",
        "is_active": true
    },
    {
        "id": 30269,
        "state_id": 981,
        "country_id": 83,
        "name": "Großörner",
        "latitude": "51.61527000",
        "longitude": "11.48980000",
        "is_active": true
    },
    {
        "id": 30270,
        "state_id": 981,
        "country_id": 83,
        "name": "Gräfenhainichen",
        "latitude": "51.72892000",
        "longitude": "12.45651000",
        "is_active": true
    },
    {
        "id": 30271,
        "state_id": 981,
        "country_id": 83,
        "name": "Gröbers",
        "latitude": "51.43050000",
        "longitude": "12.11623000",
        "is_active": true
    },
    {
        "id": 30272,
        "state_id": 981,
        "country_id": 83,
        "name": "Gröbzig",
        "latitude": "51.68226000",
        "longitude": "11.87453000",
        "is_active": true
    },
    {
        "id": 30273,
        "state_id": 981,
        "country_id": 83,
        "name": "Gröningen",
        "latitude": "51.93744000",
        "longitude": "11.21601000",
        "is_active": true
    },
    {
        "id": 30274,
        "state_id": 981,
        "country_id": 83,
        "name": "Gutenberg",
        "latitude": "51.54710000",
        "longitude": "11.97181000",
        "is_active": true
    },
    {
        "id": 30275,
        "state_id": 981,
        "country_id": 83,
        "name": "Görzig",
        "latitude": "51.66381000",
        "longitude": "11.99759000",
        "is_active": true
    },
    {
        "id": 30276,
        "state_id": 981,
        "country_id": 83,
        "name": "Günthersdorf",
        "latitude": "51.34570000",
        "longitude": "12.17175000",
        "is_active": true
    },
    {
        "id": 30277,
        "state_id": 981,
        "country_id": 83,
        "name": "Güsten",
        "latitude": "51.79637000",
        "longitude": "11.61246000",
        "is_active": true
    },
    {
        "id": 30278,
        "state_id": 981,
        "country_id": 83,
        "name": "Hadmersleben",
        "latitude": "51.99275000",
        "longitude": "11.30283000",
        "is_active": true
    },
    {
        "id": 30279,
        "state_id": 981,
        "country_id": 83,
        "name": "Halberstadt",
        "latitude": "51.89562000",
        "longitude": "11.05622000",
        "is_active": true
    },
    {
        "id": 30280,
        "state_id": 981,
        "country_id": 83,
        "name": "Haldensleben I",
        "latitude": "52.28906000",
        "longitude": "11.40982000",
        "is_active": true
    },
    {
        "id": 30281,
        "state_id": 981,
        "country_id": 83,
        "name": "Halle (Saale)",
        "latitude": "51.48158000",
        "longitude": "11.97947000",
        "is_active": true
    },
    {
        "id": 30282,
        "state_id": 981,
        "country_id": 83,
        "name": "Halle Neustadt",
        "latitude": "51.47924000",
        "longitude": "11.91605000",
        "is_active": true
    },
    {
        "id": 30283,
        "state_id": 981,
        "country_id": 83,
        "name": "Harbke",
        "latitude": "52.18877000",
        "longitude": "11.04624000",
        "is_active": true
    },
    {
        "id": 30284,
        "state_id": 981,
        "country_id": 83,
        "name": "Harsleben",
        "latitude": "51.86667000",
        "longitude": "11.10000000",
        "is_active": true
    },
    {
        "id": 30285,
        "state_id": 981,
        "country_id": 83,
        "name": "Harzgerode",
        "latitude": "51.64189000",
        "longitude": "11.14330000",
        "is_active": true
    },
    {
        "id": 30286,
        "state_id": 981,
        "country_id": 83,
        "name": "Hasselfelde",
        "latitude": "51.69051000",
        "longitude": "10.85373000",
        "is_active": true
    },
    {
        "id": 30287,
        "state_id": 981,
        "country_id": 83,
        "name": "Havelberg",
        "latitude": "52.83088000",
        "longitude": "12.07552000",
        "is_active": true
    },
    {
        "id": 30288,
        "state_id": 981,
        "country_id": 83,
        "name": "Hecklingen",
        "latitude": "51.84705000",
        "longitude": "11.53416000",
        "is_active": true
    },
    {
        "id": 30289,
        "state_id": 981,
        "country_id": 83,
        "name": "Hedersleben",
        "latitude": "51.54891000",
        "longitude": "11.64983000",
        "is_active": true
    },
    {
        "id": 30290,
        "state_id": 981,
        "country_id": 83,
        "name": "Helbra",
        "latitude": "51.55000000",
        "longitude": "11.50000000",
        "is_active": true
    },
    {
        "id": 30291,
        "state_id": 981,
        "country_id": 83,
        "name": "Hergisdorf",
        "latitude": "51.53333000",
        "longitude": "11.48333000",
        "is_active": true
    },
    {
        "id": 30292,
        "state_id": 981,
        "country_id": 83,
        "name": "Hermsdorf",
        "latitude": "52.18740000",
        "longitude": "11.47556000",
        "is_active": true
    },
    {
        "id": 30293,
        "state_id": 981,
        "country_id": 83,
        "name": "Hettstedt",
        "latitude": "51.65030000",
        "longitude": "11.51146000",
        "is_active": true
    },
    {
        "id": 30294,
        "state_id": 981,
        "country_id": 83,
        "name": "Heudeber",
        "latitude": "51.90245000",
        "longitude": "10.84321000",
        "is_active": true
    },
    {
        "id": 30295,
        "state_id": 981,
        "country_id": 83,
        "name": "Hohendodeleben",
        "latitude": "52.10412000",
        "longitude": "11.50473000",
        "is_active": true
    },
    {
        "id": 30296,
        "state_id": 981,
        "country_id": 83,
        "name": "Hohenmölsen",
        "latitude": "51.15769000",
        "longitude": "12.10000000",
        "is_active": true
    },
    {
        "id": 30297,
        "state_id": 981,
        "country_id": 83,
        "name": "Hohenthurm",
        "latitude": "51.51807000",
        "longitude": "12.09749000",
        "is_active": true
    },
    {
        "id": 30298,
        "state_id": 981,
        "country_id": 83,
        "name": "Hohenwarsleben",
        "latitude": "52.17898000",
        "longitude": "11.49994000",
        "is_active": true
    },
    {
        "id": 30299,
        "state_id": 981,
        "country_id": 83,
        "name": "Hohenwarthe",
        "latitude": "52.22968000",
        "longitude": "11.71528000",
        "is_active": true
    },
    {
        "id": 30300,
        "state_id": 981,
        "country_id": 83,
        "name": "Holleben",
        "latitude": "51.44047000",
        "longitude": "11.89915000",
        "is_active": true
    },
    {
        "id": 30301,
        "state_id": 981,
        "country_id": 83,
        "name": "Holzdorf",
        "latitude": "51.77873000",
        "longitude": "13.12756000",
        "is_active": true
    },
    {
        "id": 30302,
        "state_id": 981,
        "country_id": 83,
        "name": "Holzweißig",
        "latitude": "51.59819000",
        "longitude": "12.30842000",
        "is_active": true
    },
    {
        "id": 30303,
        "state_id": 981,
        "country_id": 83,
        "name": "Hornhausen",
        "latitude": "52.04510000",
        "longitude": "11.17104000",
        "is_active": true
    },
    {
        "id": 30304,
        "state_id": 981,
        "country_id": 83,
        "name": "Hoym",
        "latitude": "51.78292000",
        "longitude": "11.31244000",
        "is_active": true
    },
    {
        "id": 30305,
        "state_id": 981,
        "country_id": 83,
        "name": "Huy-Neinstedt",
        "latitude": "51.96585000",
        "longitude": "10.91457000",
        "is_active": true
    },
    {
        "id": 30306,
        "state_id": 981,
        "country_id": 83,
        "name": "Höhnstedt",
        "latitude": "51.50268000",
        "longitude": "11.73844000",
        "is_active": true
    },
    {
        "id": 30307,
        "state_id": 981,
        "country_id": 83,
        "name": "Hötensleben",
        "latitude": "52.11974000",
        "longitude": "11.02238000",
        "is_active": true
    },
    {
        "id": 30308,
        "state_id": 981,
        "country_id": 83,
        "name": "Hüttenrode",
        "latitude": "51.76880000",
        "longitude": "10.90384000",
        "is_active": true
    },
    {
        "id": 30309,
        "state_id": 981,
        "country_id": 83,
        "name": "Ilberstedt",
        "latitude": "51.80000000",
        "longitude": "11.66667000",
        "is_active": true
    },
    {
        "id": 30310,
        "state_id": 981,
        "country_id": 83,
        "name": "Ilsenburg",
        "latitude": "51.86695000",
        "longitude": "10.67817000",
        "is_active": true
    },
    {
        "id": 30311,
        "state_id": 981,
        "country_id": 83,
        "name": "Irxleben",
        "latitude": "52.16689000",
        "longitude": "11.48064000",
        "is_active": true
    },
    {
        "id": 30312,
        "state_id": 981,
        "country_id": 83,
        "name": "Jerichow",
        "latitude": "52.50049000",
        "longitude": "12.02383000",
        "is_active": true
    },
    {
        "id": 30313,
        "state_id": 981,
        "country_id": 83,
        "name": "Jessen",
        "latitude": "51.79337000",
        "longitude": "12.95762000",
        "is_active": true
    },
    {
        "id": 30314,
        "state_id": 981,
        "country_id": 83,
        "name": "Jeßnitz",
        "latitude": "51.68307000",
        "longitude": "12.29992000",
        "is_active": true
    },
    {
        "id": 30315,
        "state_id": 981,
        "country_id": 83,
        "name": "Jävenitz",
        "latitude": "52.52410000",
        "longitude": "11.49909000",
        "is_active": true
    },
    {
        "id": 30316,
        "state_id": 981,
        "country_id": 83,
        "name": "Kalbe",
        "latitude": "52.65656000",
        "longitude": "11.38456000",
        "is_active": true
    },
    {
        "id": 30317,
        "state_id": 981,
        "country_id": 83,
        "name": "Karsdorf",
        "latitude": "51.27134000",
        "longitude": "11.65775000",
        "is_active": true
    },
    {
        "id": 30318,
        "state_id": 981,
        "country_id": 83,
        "name": "Kayna",
        "latitude": "50.99414000",
        "longitude": "12.23710000",
        "is_active": true
    },
    {
        "id": 30319,
        "state_id": 981,
        "country_id": 83,
        "name": "Kelbra",
        "latitude": "51.43528000",
        "longitude": "11.04143000",
        "is_active": true
    },
    {
        "id": 30320,
        "state_id": 981,
        "country_id": 83,
        "name": "Kemberg",
        "latitude": "51.77189000",
        "longitude": "12.63227000",
        "is_active": true
    },
    {
        "id": 30321,
        "state_id": 981,
        "country_id": 83,
        "name": "Klein Wanzleben",
        "latitude": "52.07005000",
        "longitude": "11.36594000",
        "is_active": true
    },
    {
        "id": 30322,
        "state_id": 981,
        "country_id": 83,
        "name": "Klieken",
        "latitude": "51.88806000",
        "longitude": "12.37070000",
        "is_active": true
    },
    {
        "id": 30323,
        "state_id": 981,
        "country_id": 83,
        "name": "Klietz",
        "latitude": "52.66835000",
        "longitude": "12.06812000",
        "is_active": true
    },
    {
        "id": 30324,
        "state_id": 981,
        "country_id": 83,
        "name": "Klostermansfeld",
        "latitude": "51.58333000",
        "longitude": "11.50000000",
        "is_active": true
    },
    {
        "id": 30325,
        "state_id": 981,
        "country_id": 83,
        "name": "Klötze",
        "latitude": "52.62725000",
        "longitude": "11.16424000",
        "is_active": true
    },
    {
        "id": 30326,
        "state_id": 981,
        "country_id": 83,
        "name": "Kretzschau",
        "latitude": "51.05000000",
        "longitude": "12.06667000",
        "is_active": true
    },
    {
        "id": 30327,
        "state_id": 981,
        "country_id": 83,
        "name": "Kroppenstedt",
        "latitude": "51.94211000",
        "longitude": "11.30841000",
        "is_active": true
    },
    {
        "id": 30328,
        "state_id": 981,
        "country_id": 83,
        "name": "Kropstädt",
        "latitude": "51.96307000",
        "longitude": "12.74550000",
        "is_active": true
    },
    {
        "id": 30329,
        "state_id": 981,
        "country_id": 83,
        "name": "Krumpa",
        "latitude": "51.29724000",
        "longitude": "11.84412000",
        "is_active": true
    },
    {
        "id": 30330,
        "state_id": 981,
        "country_id": 83,
        "name": "Kusey",
        "latitude": "52.57987000",
        "longitude": "11.09056000",
        "is_active": true
    },
    {
        "id": 30331,
        "state_id": 981,
        "country_id": 83,
        "name": "Könnern",
        "latitude": "51.67120000",
        "longitude": "11.77068000",
        "is_active": true
    },
    {
        "id": 30332,
        "state_id": 981,
        "country_id": 83,
        "name": "Köthen",
        "latitude": "51.75185000",
        "longitude": "11.97093000",
        "is_active": true
    },
    {
        "id": 30333,
        "state_id": 981,
        "country_id": 83,
        "name": "Kötzschau",
        "latitude": "51.31244000",
        "longitude": "12.13044000",
        "is_active": true
    },
    {
        "id": 30334,
        "state_id": 981,
        "country_id": 83,
        "name": "Landsberg",
        "latitude": "51.52698000",
        "longitude": "12.16076000",
        "is_active": true
    },
    {
        "id": 30335,
        "state_id": 981,
        "country_id": 83,
        "name": "Langeln",
        "latitude": "51.91188000",
        "longitude": "10.79436000",
        "is_active": true
    },
    {
        "id": 30336,
        "state_id": 981,
        "country_id": 83,
        "name": "Langenbogen",
        "latitude": "51.48300000",
        "longitude": "11.77786000",
        "is_active": true
    },
    {
        "id": 30337,
        "state_id": 981,
        "country_id": 83,
        "name": "Langendorf",
        "latitude": "51.17972000",
        "longitude": "11.96140000",
        "is_active": true
    },
    {
        "id": 30338,
        "state_id": 981,
        "country_id": 83,
        "name": "Langeneichstädt",
        "latitude": "51.34537000",
        "longitude": "11.74330000",
        "is_active": true
    },
    {
        "id": 30339,
        "state_id": 981,
        "country_id": 83,
        "name": "Langenstein",
        "latitude": "51.85551000",
        "longitude": "10.98822000",
        "is_active": true
    },
    {
        "id": 30340,
        "state_id": 981,
        "country_id": 83,
        "name": "Laucha",
        "latitude": "51.22422000",
        "longitude": "11.67988000",
        "is_active": true
    },
    {
        "id": 30341,
        "state_id": 981,
        "country_id": 83,
        "name": "Leitzkau",
        "latitude": "52.05818000",
        "longitude": "11.95203000",
        "is_active": true
    },
    {
        "id": 30342,
        "state_id": 981,
        "country_id": 83,
        "name": "Leißling",
        "latitude": "51.18260000",
        "longitude": "11.90954000",
        "is_active": true
    },
    {
        "id": 30343,
        "state_id": 981,
        "country_id": 83,
        "name": "Letzlingen",
        "latitude": "52.44615000",
        "longitude": "11.48518000",
        "is_active": true
    },
    {
        "id": 30344,
        "state_id": 981,
        "country_id": 83,
        "name": "Leuna",
        "latitude": "51.31783000",
        "longitude": "12.01589000",
        "is_active": true
    },
    {
        "id": 30345,
        "state_id": 981,
        "country_id": 83,
        "name": "Lieskau",
        "latitude": "51.50395000",
        "longitude": "11.86208000",
        "is_active": true
    },
    {
        "id": 30346,
        "state_id": 981,
        "country_id": 83,
        "name": "Lindau",
        "latitude": "52.03751000",
        "longitude": "12.10788000",
        "is_active": true
    },
    {
        "id": 30347,
        "state_id": 981,
        "country_id": 83,
        "name": "Loburg",
        "latitude": "52.11509000",
        "longitude": "12.07840000",
        "is_active": true
    },
    {
        "id": 30348,
        "state_id": 981,
        "country_id": 83,
        "name": "Lochau",
        "latitude": "51.39738000",
        "longitude": "12.05303000",
        "is_active": true
    },
    {
        "id": 30349,
        "state_id": 981,
        "country_id": 83,
        "name": "Lostau",
        "latitude": "52.20871000",
        "longitude": "11.73795000",
        "is_active": true
    },
    {
        "id": 30350,
        "state_id": 981,
        "country_id": 83,
        "name": "Luftkurort Arendsee",
        "latitude": "52.88073000",
        "longitude": "11.48621000",
        "is_active": true
    },
    {
        "id": 30351,
        "state_id": 981,
        "country_id": 83,
        "name": "Löbejün",
        "latitude": "51.63533000",
        "longitude": "11.90106000",
        "is_active": true
    },
    {
        "id": 30352,
        "state_id": 981,
        "country_id": 83,
        "name": "Löberitz",
        "latitude": "51.65393000",
        "longitude": "12.14655000",
        "is_active": true
    },
    {
        "id": 30353,
        "state_id": 981,
        "country_id": 83,
        "name": "Lüderitz",
        "latitude": "52.50912000",
        "longitude": "11.74301000",
        "is_active": true
    },
    {
        "id": 30354,
        "state_id": 981,
        "country_id": 83,
        "name": "Lützen",
        "latitude": "51.25671000",
        "longitude": "12.14164000",
        "is_active": true
    },
    {
        "id": 30355,
        "state_id": 981,
        "country_id": 83,
        "name": "Magdeburg",
        "latitude": "52.12773000",
        "longitude": "11.62916000",
        "is_active": true
    },
    {
        "id": 30356,
        "state_id": 981,
        "country_id": 83,
        "name": "Mansfeld",
        "latitude": "51.59234000",
        "longitude": "11.45223000",
        "is_active": true
    },
    {
        "id": 30357,
        "state_id": 981,
        "country_id": 83,
        "name": "Mehringen",
        "latitude": "51.72663000",
        "longitude": "11.51264000",
        "is_active": true
    },
    {
        "id": 30358,
        "state_id": 981,
        "country_id": 83,
        "name": "Meitzendorf",
        "latitude": "52.21308000",
        "longitude": "11.56174000",
        "is_active": true
    },
    {
        "id": 30359,
        "state_id": 981,
        "country_id": 83,
        "name": "Merseburg",
        "latitude": "51.35478000",
        "longitude": "11.98923000",
        "is_active": true
    },
    {
        "id": 30360,
        "state_id": 981,
        "country_id": 83,
        "name": "Mieste",
        "latitude": "52.48226000",
        "longitude": "11.20640000",
        "is_active": true
    },
    {
        "id": 30361,
        "state_id": 981,
        "country_id": 83,
        "name": "Muldenstein",
        "latitude": "51.67192000",
        "longitude": "12.34548000",
        "is_active": true
    },
    {
        "id": 30362,
        "state_id": 981,
        "country_id": 83,
        "name": "Muschwitz",
        "latitude": "51.19296000",
        "longitude": "12.12065000",
        "is_active": true
    },
    {
        "id": 30363,
        "state_id": 981,
        "country_id": 83,
        "name": "Möckern",
        "latitude": "52.14099000",
        "longitude": "11.95203000",
        "is_active": true
    },
    {
        "id": 30364,
        "state_id": 981,
        "country_id": 83,
        "name": "Möhlau",
        "latitude": "51.73126000",
        "longitude": "12.35282000",
        "is_active": true
    },
    {
        "id": 30365,
        "state_id": 981,
        "country_id": 83,
        "name": "Möser",
        "latitude": "52.21397000",
        "longitude": "11.79279000",
        "is_active": true
    },
    {
        "id": 30366,
        "state_id": 981,
        "country_id": 83,
        "name": "Mücheln",
        "latitude": "51.29688000",
        "longitude": "11.80759000",
        "is_active": true
    },
    {
        "id": 30367,
        "state_id": 981,
        "country_id": 83,
        "name": "Mühlanger",
        "latitude": "51.85000000",
        "longitude": "12.75000000",
        "is_active": true
    },
    {
        "id": 30368,
        "state_id": 981,
        "country_id": 83,
        "name": "Nachterstedt",
        "latitude": "51.80081000",
        "longitude": "11.33489000",
        "is_active": true
    },
    {
        "id": 30369,
        "state_id": 981,
        "country_id": 83,
        "name": "Nauendorf",
        "latitude": "51.60178000",
        "longitude": "11.88525000",
        "is_active": true
    },
    {
        "id": 30370,
        "state_id": 981,
        "country_id": 83,
        "name": "Naumburg",
        "latitude": "51.14987000",
        "longitude": "11.80979000",
        "is_active": true
    },
    {
        "id": 30371,
        "state_id": 981,
        "country_id": 83,
        "name": "Nebra",
        "latitude": "51.28810000",
        "longitude": "11.57749000",
        "is_active": true
    },
    {
        "id": 30372,
        "state_id": 981,
        "country_id": 83,
        "name": "Neinstedt",
        "latitude": "51.74950000",
        "longitude": "11.08721000",
        "is_active": true
    },
    {
        "id": 30373,
        "state_id": 981,
        "country_id": 83,
        "name": "Nessa",
        "latitude": "51.14565000",
        "longitude": "12.00874000",
        "is_active": true
    },
    {
        "id": 30374,
        "state_id": 981,
        "country_id": 83,
        "name": "Neue Neustadt",
        "latitude": "52.15000000",
        "longitude": "11.63333000",
        "is_active": true
    },
    {
        "id": 30375,
        "state_id": 981,
        "country_id": 83,
        "name": "Neundorf",
        "latitude": "51.82080000",
        "longitude": "11.57484000",
        "is_active": true
    },
    {
        "id": 30376,
        "state_id": 981,
        "country_id": 83,
        "name": "Niederndodeleben",
        "latitude": "52.13416000",
        "longitude": "11.50085000",
        "is_active": true
    },
    {
        "id": 30377,
        "state_id": 981,
        "country_id": 83,
        "name": "Niemberg",
        "latitude": "51.55035000",
        "longitude": "12.09089000",
        "is_active": true
    },
    {
        "id": 30378,
        "state_id": 981,
        "country_id": 83,
        "name": "Nienburg/Saale",
        "latitude": "51.83747000",
        "longitude": "11.76979000",
        "is_active": true
    },
    {
        "id": 30379,
        "state_id": 981,
        "country_id": 83,
        "name": "Nudersdorf",
        "latitude": "51.93025000",
        "longitude": "12.59554000",
        "is_active": true
    },
    {
        "id": 30380,
        "state_id": 981,
        "country_id": 83,
        "name": "Oberröblingen",
        "latitude": "51.43705000",
        "longitude": "11.30750000",
        "is_active": true
    },
    {
        "id": 30381,
        "state_id": 981,
        "country_id": 83,
        "name": "Obhausen",
        "latitude": "51.39172000",
        "longitude": "11.65312000",
        "is_active": true
    },
    {
        "id": 30382,
        "state_id": 981,
        "country_id": 83,
        "name": "Oebisfelde",
        "latitude": "52.43421000",
        "longitude": "10.98786000",
        "is_active": true
    },
    {
        "id": 30383,
        "state_id": 981,
        "country_id": 83,
        "name": "Oppin",
        "latitude": "51.55136000",
        "longitude": "12.03274000",
        "is_active": true
    },
    {
        "id": 30384,
        "state_id": 981,
        "country_id": 83,
        "name": "Oranienbaum",
        "latitude": "51.79860000",
        "longitude": "12.40583000",
        "is_active": true
    },
    {
        "id": 30385,
        "state_id": 981,
        "country_id": 83,
        "name": "Oschersleben",
        "latitude": "52.03039000",
        "longitude": "11.22898000",
        "is_active": true
    },
    {
        "id": 30386,
        "state_id": 981,
        "country_id": 83,
        "name": "Osterburg",
        "latitude": "52.78721000",
        "longitude": "11.75297000",
        "is_active": true
    },
    {
        "id": 30387,
        "state_id": 981,
        "country_id": 83,
        "name": "Osterfeld",
        "latitude": "51.08014000",
        "longitude": "11.93047000",
        "is_active": true
    },
    {
        "id": 30388,
        "state_id": 981,
        "country_id": 83,
        "name": "Osterhausen",
        "latitude": "51.45417000",
        "longitude": "11.50456000",
        "is_active": true
    },
    {
        "id": 30389,
        "state_id": 981,
        "country_id": 83,
        "name": "Osternienburg",
        "latitude": "51.79384000",
        "longitude": "12.02616000",
        "is_active": true
    },
    {
        "id": 30390,
        "state_id": 981,
        "country_id": 83,
        "name": "Osternienburger Land",
        "latitude": "51.80000000",
        "longitude": "12.01667000",
        "is_active": true
    },
    {
        "id": 30391,
        "state_id": 981,
        "country_id": 83,
        "name": "Osterwieck",
        "latitude": "51.96990000",
        "longitude": "10.71042000",
        "is_active": true
    },
    {
        "id": 30392,
        "state_id": 981,
        "country_id": 83,
        "name": "Peißen",
        "latitude": "51.74347000",
        "longitude": "11.75756000",
        "is_active": true
    },
    {
        "id": 30393,
        "state_id": 981,
        "country_id": 83,
        "name": "Piesteritz",
        "latitude": "51.86956000",
        "longitude": "12.59835000",
        "is_active": true
    },
    {
        "id": 30394,
        "state_id": 981,
        "country_id": 83,
        "name": "Plötzkau",
        "latitude": "51.75000000",
        "longitude": "11.68333000",
        "is_active": true
    },
    {
        "id": 30395,
        "state_id": 981,
        "country_id": 83,
        "name": "Plötzky",
        "latitude": "52.05207000",
        "longitude": "11.80202000",
        "is_active": true
    },
    {
        "id": 30396,
        "state_id": 981,
        "country_id": 83,
        "name": "Polleben",
        "latitude": "51.57966000",
        "longitude": "11.59931000",
        "is_active": true
    },
    {
        "id": 30397,
        "state_id": 981,
        "country_id": 83,
        "name": "Pouch",
        "latitude": "51.62324000",
        "longitude": "12.40133000",
        "is_active": true
    },
    {
        "id": 30398,
        "state_id": 981,
        "country_id": 83,
        "name": "Pratau",
        "latitude": "51.84226000",
        "longitude": "12.64373000",
        "is_active": true
    },
    {
        "id": 30399,
        "state_id": 981,
        "country_id": 83,
        "name": "Prettin",
        "latitude": "51.66077000",
        "longitude": "12.92353000",
        "is_active": true
    },
    {
        "id": 30400,
        "state_id": 981,
        "country_id": 83,
        "name": "Pretzier",
        "latitude": "52.83224000",
        "longitude": "11.26105000",
        "is_active": true
    },
    {
        "id": 30401,
        "state_id": 981,
        "country_id": 83,
        "name": "Pretzsch",
        "latitude": "51.71466000",
        "longitude": "12.80663000",
        "is_active": true
    },
    {
        "id": 30402,
        "state_id": 981,
        "country_id": 83,
        "name": "Prittitz",
        "latitude": "51.14996000",
        "longitude": "11.93020000",
        "is_active": true
    },
    {
        "id": 30403,
        "state_id": 981,
        "country_id": 83,
        "name": "Quedlinburg",
        "latitude": "51.78843000",
        "longitude": "11.15006000",
        "is_active": true
    },
    {
        "id": 30404,
        "state_id": 981,
        "country_id": 83,
        "name": "Queis",
        "latitude": "51.47626000",
        "longitude": "12.13455000",
        "is_active": true
    },
    {
        "id": 30405,
        "state_id": 981,
        "country_id": 83,
        "name": "Quellendorf",
        "latitude": "51.74916000",
        "longitude": "12.12796000",
        "is_active": true
    },
    {
        "id": 30406,
        "state_id": 981,
        "country_id": 83,
        "name": "Querfurt",
        "latitude": "51.38124000",
        "longitude": "11.60047000",
        "is_active": true
    },
    {
        "id": 30407,
        "state_id": 981,
        "country_id": 83,
        "name": "Radegast",
        "latitude": "51.65654000",
        "longitude": "12.09485000",
        "is_active": true
    },
    {
        "id": 30408,
        "state_id": 981,
        "country_id": 83,
        "name": "Radis",
        "latitude": "51.75226000",
        "longitude": "12.51453000",
        "is_active": true
    },
    {
        "id": 30409,
        "state_id": 981,
        "country_id": 83,
        "name": "Raguhn",
        "latitude": "51.71167000",
        "longitude": "12.27531000",
        "is_active": true
    },
    {
        "id": 30410,
        "state_id": 981,
        "country_id": 83,
        "name": "Ramsin",
        "latitude": "51.61095000",
        "longitude": "12.23812000",
        "is_active": true
    },
    {
        "id": 30411,
        "state_id": 981,
        "country_id": 83,
        "name": "Raßnitz",
        "latitude": "51.39085000",
        "longitude": "12.09406000",
        "is_active": true
    },
    {
        "id": 30412,
        "state_id": 981,
        "country_id": 83,
        "name": "Reichardtswerben",
        "latitude": "51.24851000",
        "longitude": "11.95349000",
        "is_active": true
    },
    {
        "id": 30413,
        "state_id": 981,
        "country_id": 83,
        "name": "Reußen",
        "latitude": "51.50109000",
        "longitude": "12.13044000",
        "is_active": true
    },
    {
        "id": 30414,
        "state_id": 981,
        "country_id": 83,
        "name": "Rieder",
        "latitude": "51.73333000",
        "longitude": "11.16667000",
        "is_active": true
    },
    {
        "id": 30415,
        "state_id": 981,
        "country_id": 83,
        "name": "Riestedt",
        "latitude": "51.49496000",
        "longitude": "11.36023000",
        "is_active": true
    },
    {
        "id": 30416,
        "state_id": 981,
        "country_id": 83,
        "name": "Rodleben",
        "latitude": "51.89607000",
        "longitude": "12.20061000",
        "is_active": true
    },
    {
        "id": 30417,
        "state_id": 981,
        "country_id": 83,
        "name": "Rogätz",
        "latitude": "52.31667000",
        "longitude": "11.76667000",
        "is_active": true
    },
    {
        "id": 30418,
        "state_id": 981,
        "country_id": 83,
        "name": "Roitzsch",
        "latitude": "51.57526000",
        "longitude": "12.26331000",
        "is_active": true
    },
    {
        "id": 30419,
        "state_id": 981,
        "country_id": 83,
        "name": "Rottleberode",
        "latitude": "51.51636000",
        "longitude": "10.94658000",
        "is_active": true
    },
    {
        "id": 30420,
        "state_id": 981,
        "country_id": 83,
        "name": "Roßla",
        "latitude": "51.46331000",
        "longitude": "11.07576000",
        "is_active": true
    },
    {
        "id": 30421,
        "state_id": 981,
        "country_id": 83,
        "name": "Roßlau",
        "latitude": "51.88736000",
        "longitude": "12.24192000",
        "is_active": true
    },
    {
        "id": 30422,
        "state_id": 981,
        "country_id": 83,
        "name": "Röblingen am See",
        "latitude": "51.45944000",
        "longitude": "11.68231000",
        "is_active": true
    },
    {
        "id": 30423,
        "state_id": 981,
        "country_id": 83,
        "name": "Rübeland",
        "latitude": "51.75591000",
        "longitude": "10.84660000",
        "is_active": true
    },
    {
        "id": 30424,
        "state_id": 981,
        "country_id": 83,
        "name": "Salzmünde",
        "latitude": "51.52662000",
        "longitude": "11.82650000",
        "is_active": true
    },
    {
        "id": 30425,
        "state_id": 981,
        "country_id": 83,
        "name": "Salzwedel",
        "latitude": "52.85435000",
        "longitude": "11.15250000",
        "is_active": true
    },
    {
        "id": 30426,
        "state_id": 981,
        "country_id": 83,
        "name": "Samswegen",
        "latitude": "52.26059000",
        "longitude": "11.56174000",
        "is_active": true
    },
    {
        "id": 30427,
        "state_id": 981,
        "country_id": 83,
        "name": "Sandau",
        "latitude": "52.78968000",
        "longitude": "12.04582000",
        "is_active": true
    },
    {
        "id": 30428,
        "state_id": 981,
        "country_id": 83,
        "name": "Sandersdorf",
        "latitude": "51.62841000",
        "longitude": "12.26492000",
        "is_active": true
    },
    {
        "id": 30429,
        "state_id": 981,
        "country_id": 83,
        "name": "Sandersleben",
        "latitude": "51.67745000",
        "longitude": "11.56795000",
        "is_active": true
    },
    {
        "id": 30430,
        "state_id": 981,
        "country_id": 83,
        "name": "Sangerhausen",
        "latitude": "51.47221000",
        "longitude": "11.29533000",
        "is_active": true
    },
    {
        "id": 30431,
        "state_id": 981,
        "country_id": 83,
        "name": "Schafstädt",
        "latitude": "51.38131000",
        "longitude": "11.77302000",
        "is_active": true
    },
    {
        "id": 30432,
        "state_id": 981,
        "country_id": 83,
        "name": "Schermen",
        "latitude": "52.23206000",
        "longitude": "11.81382000",
        "is_active": true
    },
    {
        "id": 30433,
        "state_id": 981,
        "country_id": 83,
        "name": "Schkopau",
        "latitude": "51.39186000",
        "longitude": "11.95224000",
        "is_active": true
    },
    {
        "id": 30434,
        "state_id": 981,
        "country_id": 83,
        "name": "Schlaitz",
        "latitude": "51.65871000",
        "longitude": "12.42839000",
        "is_active": true
    },
    {
        "id": 30435,
        "state_id": 981,
        "country_id": 83,
        "name": "Schneidlingen",
        "latitude": "51.89454000",
        "longitude": "11.44487000",
        "is_active": true
    },
    {
        "id": 30436,
        "state_id": 981,
        "country_id": 83,
        "name": "Schochwitz",
        "latitude": "51.53174000",
        "longitude": "11.75485000",
        "is_active": true
    },
    {
        "id": 30437,
        "state_id": 981,
        "country_id": 83,
        "name": "Schraplau",
        "latitude": "51.43750000",
        "longitude": "11.66823000",
        "is_active": true
    },
    {
        "id": 30438,
        "state_id": 981,
        "country_id": 83,
        "name": "Schwanebeck",
        "latitude": "51.96790000",
        "longitude": "11.12393000",
        "is_active": true
    },
    {
        "id": 30439,
        "state_id": 981,
        "country_id": 83,
        "name": "Schönburg",
        "latitude": "51.16667000",
        "longitude": "11.86667000",
        "is_active": true
    },
    {
        "id": 30440,
        "state_id": 981,
        "country_id": 83,
        "name": "Schönebeck",
        "latitude": "52.01682000",
        "longitude": "11.73070000",
        "is_active": true
    },
    {
        "id": 30441,
        "state_id": 981,
        "country_id": 83,
        "name": "Schönhausen",
        "latitude": "52.58076000",
        "longitude": "12.03923000",
        "is_active": true
    },
    {
        "id": 30442,
        "state_id": 981,
        "country_id": 83,
        "name": "Seehausen",
        "latitude": "52.88872000",
        "longitude": "11.75236000",
        "is_active": true
    },
    {
        "id": 30443,
        "state_id": 981,
        "country_id": 83,
        "name": "Sennewitz",
        "latitude": "51.54326000",
        "longitude": "11.95218000",
        "is_active": true
    },
    {
        "id": 30444,
        "state_id": 981,
        "country_id": 83,
        "name": "Seyda",
        "latitude": "51.88163000",
        "longitude": "12.90812000",
        "is_active": true
    },
    {
        "id": 30445,
        "state_id": 981,
        "country_id": 83,
        "name": "Siersleben",
        "latitude": "51.60411000",
        "longitude": "11.54334000",
        "is_active": true
    },
    {
        "id": 30446,
        "state_id": 981,
        "country_id": 83,
        "name": "Sommersdorf",
        "latitude": "52.16667000",
        "longitude": "11.08333000",
        "is_active": true
    },
    {
        "id": 30447,
        "state_id": 981,
        "country_id": 83,
        "name": "Spergau",
        "latitude": "51.29347000",
        "longitude": "12.02292000",
        "is_active": true
    },
    {
        "id": 30448,
        "state_id": 981,
        "country_id": 83,
        "name": "Stapelburg",
        "latitude": "51.90075000",
        "longitude": "10.66240000",
        "is_active": true
    },
    {
        "id": 30449,
        "state_id": 981,
        "country_id": 83,
        "name": "Staßfurt",
        "latitude": "51.85186000",
        "longitude": "11.58508000",
        "is_active": true
    },
    {
        "id": 30450,
        "state_id": 981,
        "country_id": 83,
        "name": "Stedten",
        "latitude": "51.44308000",
        "longitude": "11.69291000",
        "is_active": true
    },
    {
        "id": 30451,
        "state_id": 981,
        "country_id": 83,
        "name": "Stendal",
        "latitude": "52.60690000",
        "longitude": "11.85867000",
        "is_active": true
    },
    {
        "id": 30452,
        "state_id": 981,
        "country_id": 83,
        "name": "Stolberg",
        "latitude": "51.57426000",
        "longitude": "10.95582000",
        "is_active": true
    },
    {
        "id": 30453,
        "state_id": 981,
        "country_id": 83,
        "name": "Ströbeck",
        "latitude": "51.91406000",
        "longitude": "10.94445000",
        "is_active": true
    },
    {
        "id": 30454,
        "state_id": 981,
        "country_id": 83,
        "name": "Stößen",
        "latitude": "51.11440000",
        "longitude": "11.92405000",
        "is_active": true
    },
    {
        "id": 30455,
        "state_id": 981,
        "country_id": 83,
        "name": "Süplingen",
        "latitude": "52.28759000",
        "longitude": "11.32450000",
        "is_active": true
    },
    {
        "id": 30456,
        "state_id": 981,
        "country_id": 83,
        "name": "Tangerhütte",
        "latitude": "52.43530000",
        "longitude": "11.80724000",
        "is_active": true
    },
    {
        "id": 30457,
        "state_id": 981,
        "country_id": 83,
        "name": "Tangermünde",
        "latitude": "52.54463000",
        "longitude": "11.97647000",
        "is_active": true
    },
    {
        "id": 30458,
        "state_id": 981,
        "country_id": 83,
        "name": "Teicha",
        "latitude": "51.55887000",
        "longitude": "11.95482000",
        "is_active": true
    },
    {
        "id": 30459,
        "state_id": 981,
        "country_id": 83,
        "name": "Teuchel",
        "latitude": "51.88842000",
        "longitude": "12.64587000",
        "is_active": true
    },
    {
        "id": 30460,
        "state_id": 981,
        "country_id": 83,
        "name": "Teuchern",
        "latitude": "51.12094000",
        "longitude": "12.02410000",
        "is_active": true
    },
    {
        "id": 30461,
        "state_id": 981,
        "country_id": 83,
        "name": "Teutschenthal",
        "latitude": "51.45000000",
        "longitude": "11.80000000",
        "is_active": true
    },
    {
        "id": 30462,
        "state_id": 981,
        "country_id": 83,
        "name": "Thale",
        "latitude": "51.74861000",
        "longitude": "11.04100000",
        "is_active": true
    },
    {
        "id": 30463,
        "state_id": 981,
        "country_id": 83,
        "name": "Thalheim",
        "latitude": "51.65268000",
        "longitude": "12.22756000",
        "is_active": true
    },
    {
        "id": 30464,
        "state_id": 981,
        "country_id": 83,
        "name": "Theißen",
        "latitude": "51.08748000",
        "longitude": "12.10659000",
        "is_active": true
    },
    {
        "id": 30465,
        "state_id": 981,
        "country_id": 83,
        "name": "Timmenrode",
        "latitude": "51.77113000",
        "longitude": "11.00624000",
        "is_active": true
    },
    {
        "id": 30466,
        "state_id": 981,
        "country_id": 83,
        "name": "Tollwitz",
        "latitude": "51.28601000",
        "longitude": "12.09733000",
        "is_active": true
    },
    {
        "id": 30467,
        "state_id": 981,
        "country_id": 83,
        "name": "Trebitz",
        "latitude": "51.58615000",
        "longitude": "11.91965000",
        "is_active": true
    },
    {
        "id": 30468,
        "state_id": 981,
        "country_id": 83,
        "name": "Tucheim",
        "latitude": "52.28923000",
        "longitude": "12.18423000",
        "is_active": true
    },
    {
        "id": 30469,
        "state_id": 981,
        "country_id": 83,
        "name": "Uchtspringe",
        "latitude": "52.54011000",
        "longitude": "11.59959000",
        "is_active": true
    },
    {
        "id": 30470,
        "state_id": 981,
        "country_id": 83,
        "name": "Uenglingen",
        "latitude": "52.61797000",
        "longitude": "11.80893000",
        "is_active": true
    },
    {
        "id": 30471,
        "state_id": 981,
        "country_id": 83,
        "name": "Uftrungen",
        "latitude": "51.49859000",
        "longitude": "10.98066000",
        "is_active": true
    },
    {
        "id": 30472,
        "state_id": 981,
        "country_id": 83,
        "name": "Uichteritz",
        "latitude": "51.20652000",
        "longitude": "11.92215000",
        "is_active": true
    },
    {
        "id": 30473,
        "state_id": 981,
        "country_id": 83,
        "name": "Ummendorf",
        "latitude": "52.15645000",
        "longitude": "11.18151000",
        "is_active": true
    },